[
  {
    "Id": "01H980MA0J6P4K2YP2RH1HJ8YV",
    "Name": "CJ Warehousing - Thủ Đức",
    "ZipCode": "700000",
    "Location": {
      "Latitude": 10.8274,
      "Longitude": 106.8117
    },
    "Address": {
      "Street": "63 Lò Lu",
      "Ward": "Trường Thạnh",
      "City": "Thủ Đức",
      "Province": "Hồ Chí Minh",
      "ZipCode": "71354"
    },
    "Status": 0
  },
  {
    "Id": "01H980MA0JGWX7H0MGZ3TQVW39",
    "Name": "Kho Biên Hòa",
    "ZipCode": "76000",
    "Location": {
      "Latitude": 10.9321,
      "Longitude": 106.967
    },
    "Address": {
      "Street": "Võ Nguyên Giáp",
      "Ward": "Bình Minh",
      "City": "Trảng Bom",
      "Province": "Đồng Nai",
      "ZipCode": "76300"
    },
    "Status": 0
  },
  {
    "ZipCode": "963-5343",
    "Id": "01H98F4F5Q9AM59EG7EJFB2ED4",
    "Name": "Browseblab",
    "Location": { "Latitude": 36.905485, "Longitude": 140.4069331 },
    "Address": {
      "Street": "52 Killdeer Hill",
      "Ward": "Ward 4",
      "City": "Ueda",
      "ZipCode": "533 50"
    },
    "Status": 1
  },
  {
    "ZipCode": "273 02",
    "Id": "01H98F4F5S814XX1H3T36YRJFF",
    "Name": "Flashpoint",
    "Location": { "Latitude": 50.1380318, "Longitude": 13.9911619 },
    "Address": {
      "Street": "3 Swallow Terrace",
      "Ward": "Trường Thạnh",
      "City": "Tuchlovice",
      "ZipCode": "4990-690"
    },
    "Status": 0
  },
  {
    "ZipCode": "36-212",
    "Id": "01H98F4F5TXGEW8BCYQHZR0E79",
    "Name": "Quimm",
    "Location": { "Latitude": 49.6616099, "Longitude": 22.004725 },
    "Address": {
      "Street": "50301 Huxley Drive",
      "Ward": "Ward 2",
      "City": "Turze Pole"
    },
    "Status": 0
  },
  {
    "ZipCode": "26-050",
    "Id": "01H98F4F5WEHC30R98ASVBS503",
    "Name": "Skinix",
    "Location": { "Latitude": 50.9872632, "Longitude": 20.6630795 },
    "Address": {
      "Street": "055 Sommers Circle",
      "Ward": "Ward 2",
      "City": "Kaniów",
      "ZipCode": "30414"
    },
    "Status": 0
  },
  {
    "ZipCode": "5417",
    "Id": "01H98F4F5Y3PENEJSST0ZSV238",
    "Name": "Quatz",
    "Location": { "Latitude": 12.5640276, "Longitude": 123.7304111 },
    "Address": {
      "Street": "01 Cascade Way",
      "Ward": "Trường Thạnh",
      "City": "San Jacinto"
    },
    "Status": 0
  },
  {
    "ZipCode": "45440",
    "Id": "01H98F4F5ZG2FRMPQ39F5KHVVZ",
    "Name": "Viva",
    "Location": { "Latitude": 39.6720868, "Longitude": -84.0960056 },
    "Address": {
      "Street": "7 Talisman Hill",
      "Ward": "Ward 3",
      "City": "Dayton",
      "Province": "Ohio",
      "ZipCode": "11803"
    },
    "Status": 1
  },
  {
    "ZipCode": "735037",
    "Id": "01H98F4F60QVNFNG7PG8NJTYWA",
    "Name": "Feedfire",
    "Location": { "Latitude": 3.799339, "Longitude": -75.194595 },
    "Address": {
      "Street": "4972 Blaine Parkway",
      "Ward": "Ward 5",
      "City": "Coyaima",
      "ZipCode": "4600"
    },
    "Status": 0
  },
  {
    "ZipCode": "5039",
    "Id": "01H98F4F61JAMF0FNDNE2WTR95",
    "Name": "Fatz",
    "Location": { "Latitude": 14.5697429, "Longitude": 121.0190818 },
    "Address": {
      "Street": "4 Village Way",
      "Ward": "Ward 5",
      "City": "San Rafael",
      "ZipCode": "75800-000"
    },
    "Status": 1
  },
  {
    "ZipCode": "10802",
    "Id": "01H98F4F620E6ZGJR14CDF5KTF",
    "Name": "Realbuzz",
    "Location": { "Latitude": 9.7016493, "Longitude": -84.1005807 },
    "Address": {
      "Street": "63256 Messerschmidt Way",
      "Ward": "Ward 4",
      "City": "San Francisco"
    },
    "Status": 1
  },
  {
    "ZipCode": "413 11",
    "Id": "01H98F4F63VDV76BDN95Z904GR",
    "Name": "Wordify",
    "Location": { "Latitude": 57.6900919, "Longitude": 11.94588 },
    "Address": {
      "Street": "4 Iowa Alley",
      "Ward": "Ward 2",
      "City": "Göteborg",
      "Province": "Västra Götaland"
    },
    "Status": 1
  },
  {
    "ZipCode": "14620-000",
    "Id": "01H98F4F68REJ98RQY6ZNMBJ9Y",
    "Name": "Brightbean",
    "Location": { "Latitude": -20.7175404, "Longitude": -47.8858187 },
    "Address": {
      "Street": "51647 Ryan Center",
      "Ward": "Ward 3",
      "City": "Orlândia",
      "ZipCode": "057418"
    },
    "Status": 1
  },
  {
    "ZipCode": "D04",
    "Id": "01H98F4F6944NAEYDYV9G1W0FE",
    "Name": "Voonte",
    "Location": { "Latitude": 52.176031, "Longitude": -6.5899765 },
    "Address": {
      "Street": "7789 Pond Crossing",
      "Ward": "Ward 2",
      "City": "Balally",
      "ZipCode": "360 01"
    },
    "Status": 0
  },
  {
    "ZipCode": "8216",
    "Id": "01H98F4F6ABV4F5M2XC65B2DE0",
    "Name": "Feednation",
    "Location": { "Latitude": 42.5909476, "Longitude": 22.9834356 },
    "Address": {
      "Street": "51 Utah Drive",
      "Ward": "Trường Thạnh",
      "City": "Aheloy"
    },
    "Status": 0
  },
  {
    "ZipCode": "10304",
    "Id": "01H98F4F6E5P71Z6D87PQ36Z1P",
    "Name": "Fivespan",
    "Location": { "Latitude": 9.6588232, "Longitude": -84.0995948 },
    "Address": {
      "Street": "3 Lunder Street",
      "Ward": "Ward 3",
      "City": "San Rafael Arriba",
      "ZipCode": "242 35"
    },
    "Status": 0
  },
  {
    "ZipCode": "593 01",
    "Id": "01H98F4F6FJ1ECX78NEXSS1BDP",
    "Name": "Jabbersphere",
    "Location": { "Latitude": 49.5474598, "Longitude": 16.2620907 },
    "Address": {
      "Street": "7840 Schurz Pass",
      "Ward": "Trường Thạnh",
      "City": "Ždánice"
    },
    "Status": 0
  },
  {
    "ZipCode": "418077",
    "Id": "01H98F4F6HQWSQRDKJKS2WWA7M",
    "Name": "Tavu",
    "Location": { "Latitude": 1.879826, "Longitude": -76.270749 },
    "Address": {
      "Street": "1359 Pawling Pass",
      "Ward": "Trường Thạnh",
      "City": "San Agustín"
    },
    "Status": 1
  },
  {
    "ZipCode": "696 66",
    "Id": "01H98F4F6JXFZ8ZB63TQPSKX0H",
    "Name": "Devcast",
    "Location": { "Latitude": 48.878715, "Longitude": 17.2335614 },
    "Address": {
      "Street": "0171 Golden Leaf Pass",
      "Ward": "Ward 2",
      "City": "Sudoměřice",
      "ZipCode": "50000"
    },
    "Status": 0
  },
  {
    "ZipCode": "175419",
    "Id": "01H98F4F6K0VRK51GE9JHBZ4Q7",
    "Name": "Quire",
    "Location": { "Latitude": 57.9788789, "Longitude": 33.243615 },
    "Address": {
      "Street": "7766 Eagan Place",
      "Ward": "Ward 5",
      "City": "Valday"
    },
    "Status": 0
  },
  {
    "ZipCode": "57820-000",
    "Id": "01H98F4F6M6DRA43474SWV8C2S",
    "Name": "Flashspan",
    "Location": { "Latitude": -9.309531, "Longitude": -35.9420041 },
    "Address": {
      "Street": "50495 Porter Drive",
      "Ward": "Ward 5",
      "City": "Murici"
    },
    "Status": 0
  },
  {
    "ZipCode": "8006",
    "Id": "01H98F4F6N3FW60V4608SNRH80",
    "Name": "Vinder",
    "Location": { "Latitude": 14.7464846, "Longitude": 121.0764017 },
    "Address": {
      "Street": "4 Pankratz Park",
      "Ward": "Trường Thạnh",
      "City": "Hagonoy",
      "ZipCode": "11503"
    },
    "Status": 0
  },
  {
    "ZipCode": "08-440",
    "Id": "01H98F4F6QXBEQ4DYC47BF7PFD",
    "Name": "Fliptune",
    "Location": { "Latitude": 51.95914, "Longitude": 21.53057 },
    "Address": {
      "Street": "24 Becker Pass",
      "Ward": "Trường Thạnh",
      "City": "Pilawa",
      "ZipCode": "34-483"
    },
    "Status": 0
  },
  {
    "ZipCode": "69260-000",
    "Id": "01H98F4F6TGGBT6N9MA1B4JNYB",
    "Name": "Photojam",
    "Location": { "Latitude": -6.3019793, "Longitude": -60.0259466 },
    "Address": {
      "Street": "20 Katie Trail",
      "Ward": "Ward 5",
      "City": "Novo Aripuanã",
      "ZipCode": "N41"
    },
    "Status": 0
  },
  {
    "ZipCode": "929-0341",
    "Id": "01H98F4F6WBEBG4RHXTYKXRR7R",
    "Name": "Cogidoo",
    "Location": { "Latitude": 36.6669437, "Longitude": 136.73393 },
    "Address": {
      "Street": "059 Manley Trail",
      "Ward": "Ward 4",
      "City": "Yokohama",
      "ZipCode": "384 51"
    },
    "Status": 0
  },
  {
    "ZipCode": "2005",
    "Id": "01H98F4F702DREHT5KAH5SW653",
    "Name": "Cogibox",
    "Location": { "Latitude": 16.6969748, "Longitude": 121.5594587 },
    "Address": {
      "Street": "7 Melvin Road",
      "Ward": "Trường Thạnh",
      "City": "Calangain"
    },
    "Status": 1
  },
  {
    "ZipCode": "98124",
    "Id": "01H98F4F710MAMTDZ9EFQHZEG9",
    "Name": "Abata",
    "Location": { "Latitude": 38.1724824, "Longitude": 15.5445064 },
    "Address": {
      "Street": "24415 Boyd Avenue",
      "Ward": "Ward 2",
      "City": "Messina",
      "Province": "Sicilia"
    },
    "Status": 0
  },
  {
    "ZipCode": "98109",
    "Id": "01H98F4F72Z36J3A3E25SQ66HD",
    "Name": "Devpoint",
    "Location": { "Latitude": 47.6288591, "Longitude": -122.3456919 },
    "Address": {
      "Street": "69 Coolidge Road",
      "Ward": "Ward 4",
      "City": "Seattle",
      "Province": "Washington"
    },
    "Status": 1
  },
  {
    "ZipCode": "11204",
    "Id": "01H98F4F731P60KXKE7BXJZNR2",
    "Name": "Bluezoom",
    "Location": { "Latitude": 9.9889044, "Longitude": -84.2364028 },
    "Address": {
      "Street": "82149 Lindbergh Parkway",
      "Ward": "Ward 5",
      "City": "Tejar"
    },
    "Status": 1
  },
  {
    "ZipCode": "40140",
    "Id": "01H98F4F74N5K034E1CTJ5VBKJ",
    "Name": "Trunyx",
    "Location": { "Latitude": 13.81967, "Longitude": 100.0601382 },
    "Address": {
      "Street": "63956 Little Fleur Pass",
      "Ward": "Ward 5",
      "City": "Nakhon Pathom"
    },
    "Status": 0
  },
  {
    "ZipCode": "69902 CEDEX 20",
    "Id": "01H98F4F750VWZM58BF643QZSX",
    "Name": "Yodel",
    "Location": { "Latitude": 43.0429124, "Longitude": 1.9038837 },
    "Address": {
      "Street": "5 Donald Pass",
      "Ward": "Ward 5",
      "City": "Lyon",
      "Province": "Rhône-Alpes",
      "ZipCode": "78151"
    },
    "Status": 1
  },
  {
    "ZipCode": "3731",
    "Id": "01H98F4F76BRYVRRDAEF3KET4R",
    "Name": "Kaymbo",
    "Location": { "Latitude": 23.6755934, "Longitude": 88.980176 },
    "Address": {
      "Street": "4 Coleman Court",
      "Ward": "Ward 5",
      "City": "Nowlamary",
      "ZipCode": "1408"
    },
    "Status": 1
  },
  {
    "ZipCode": "44700-000",
    "Id": "01H98F4F7BC846GMT3MXSJ49WF",
    "Name": "Brightdog",
    "Location": { "Latitude": -11.1816506, "Longitude": -40.5120603 },
    "Address": {
      "Street": "7547 Messerschmidt Street",
      "Ward": "Ward 2",
      "City": "Jacobina",
      "ZipCode": "67-120"
    },
    "Status": 1
  },
  {
    "ZipCode": "987-0058",
    "Id": "01H98F4F7EEPVHBGWMSGP2P1VX",
    "Name": "Jatri",
    "Location": { "Latitude": 38.5261686, "Longitude": 141.0953438 },
    "Address": {
      "Street": "7 Norway Maple Hill",
      "Ward": "Ward 4",
      "City": "Shiogama",
      "ZipCode": "10304"
    },
    "Status": 1
  },
  {
    "ZipCode": "77386",
    "Id": "01H98F4F7GF34CJKX1SSDS1SYV",
    "Name": "Dabtype",
    "Location": { "Latitude": 30.1185635, "Longitude": -95.3730176 },
    "Address": {
      "Street": "262 Canary Parkway",
      "Ward": "Trường Thạnh",
      "City": "Spring",
      "Province": "Texas"
    },
    "Status": 1
  },
  {
    "ZipCode": "171543",
    "Id": "01H98F4F7HB5B0FHB2BNYZKFRR",
    "Name": "Fatz",
    "Location": { "Latitude": 56.7391033, "Longitude": 38.8533938 },
    "Address": {
      "Street": "345 Truax Hill",
      "Ward": "Ward 3",
      "City": "Pereslavl’-Zalesskiy"
    },
    "Status": 1
  },
  {
    "ZipCode": "762 91",
    "Id": "01H98F4F7JFK4KBAXWXC4YYME3",
    "Name": "Cogilith",
    "Location": { "Latitude": 59.7436995, "Longitude": 18.3601496 },
    "Address": {
      "Street": "737 Carey Drive",
      "Ward": "Ward 2",
      "City": "Rimbo",
      "Province": "Stockholm"
    },
    "Status": 0
  },
  {
    "ZipCode": "732 24",
    "Id": "01H98F4F7NE2J92NZY5H2BCBS2",
    "Name": "Kazio",
    "Location": { "Latitude": 57.7193237, "Longitude": 11.9120278 },
    "Address": {
      "Street": "71 Northridge Junction",
      "Ward": "Ward 2",
      "City": "Arboga",
      "Province": "Västmanland"
    },
    "Status": 0
  },
  {
    "ZipCode": "157460",
    "Id": "01H98F4F7PXR0CG0A5VK52WB4A",
    "Name": "Wordtune",
    "Location": { "Latitude": 57.8814317, "Longitude": 43.8050354 },
    "Address": {
      "Street": "80853 Swallow Center",
      "Ward": "Ward 3",
      "City": "Makar’yev",
      "ZipCode": "76821 CEDEX"
    },
    "Status": 0
  },
  {
    "ZipCode": "9869",
    "Id": "01H98F4F7Q4FDSCFF8FA8BZ366",
    "Name": "JumpXS",
    "Location": { "Latitude": -28.4836381, "Longitude": 28.8480284 },
    "Address": {
      "Street": "75 Prentice Park",
      "Ward": "Ward 4",
      "City": "Phuthaditjhaba"
    },
    "Status": 0
  },
  {
    "ZipCode": "6224",
    "Id": "01H98F4F7SJ8GA0JMM2CKF19BH",
    "Name": "Meevee",
    "Location": { "Latitude": 9.7846, "Longitude": 124.1745 },
    "Address": {
      "Street": "80 Morrow Center",
      "Ward": "Trường Thạnh",
      "City": "Nueva Vida Sur",
      "ZipCode": "12900-000"
    },
    "Status": 1
  },
  {
    "ZipCode": "692651",
    "Id": "01H98F4F7XDGRX5T4KRK9YXZ69",
    "Name": "Camimbo",
    "Location": { "Latitude": 60.008624, "Longitude": 30.412653 },
    "Address": {
      "Street": "13 Merchant Plaza",
      "Ward": "Ward 4",
      "City": "Grazhdanka",
      "ZipCode": "35076 CEDEX 9"
    },
    "Status": 0
  },
  {
    "ZipCode": "2630-224",
    "Id": "01H98F4F7ZPA2MS25KTTGXHAKE",
    "Name": "Topicblab",
    "Location": { "Latitude": 38.9908943, "Longitude": -9.0471651 },
    "Address": {
      "Street": "6232 Pepper Wood Park",
      "Ward": "Ward 2",
      "City": "Antas",
      "Province": "Lisboa"
    },
    "Status": 1
  },
  {
    "ZipCode": "95940-000",
    "Id": "01H98F4F818PX1BM30X4S0YQQ3",
    "Name": "Wordware",
    "Location": { "Latitude": -29.3652193, "Longitude": -51.9580164 },
    "Address": {
      "Street": "2494 Oak Center",
      "Ward": "Ward 3",
      "City": "Arroio do Meio",
      "ZipCode": "58207"
    },
    "Status": 1
  },
  {
    "ZipCode": "D13",
    "Id": "01H98F4F829HTDV2T1HEPC6RGQ",
    "Name": "Voolith",
    "Location": { "Latitude": 53.3895926, "Longitude": -6.1097188 },
    "Address": {
      "Street": "59791 Doe Crossing Pass",
      "Ward": "Ward 5",
      "City": "Sutton",
      "ZipCode": "27717"
    },
    "Status": 1
  },
  {
    "ZipCode": "216740",
    "Id": "01H98F4F84GPNT1Y0AR4TBDE6T",
    "Name": "Browsezoom",
    "Location": { "Latitude": 54.8675594, "Longitude": 31.3957567 },
    "Address": {
      "Street": "77428 Lien Place",
      "Ward": "Ward 2",
      "City": "Golynki",
      "ZipCode": "15640-000"
    },
    "Status": 0
  },
  {
    "ZipCode": "443 33",
    "Id": "01H98F4F86AXR6EFN4NB61YH0Z",
    "Name": "Skyble",
    "Location": { "Latitude": 57.7824551, "Longitude": 12.2632093 },
    "Address": {
      "Street": "75 Golf Course Place",
      "Ward": "Ward 4",
      "City": "Lerum",
      "Province": "Västra Götaland",
      "ZipCode": "98140"
    },
    "Status": 0
  },
  {
    "ZipCode": "36660-000",
    "Id": "01H98F4F8A31Q9K7TQ1TEFBN7A",
    "Name": "Topicshots",
    "Location": { "Latitude": -21.8833835, "Longitude": -42.6985095 },
    "Address": {
      "Street": "0296 7th Trail",
      "Ward": "Ward 3",
      "City": "Além Paraíba"
    },
    "Status": 0
  },
  {
    "ZipCode": "K8P",
    "Id": "01H98F4F8CS7RDTM5VFMEBMAXQ",
    "Name": "Jabbersphere",
    "Location": { "Latitude": 44.165829, "Longitude": -77.3956004 },
    "Address": {
      "Street": "320 Towne Road",
      "Ward": "Ward 2",
      "City": "Belleville",
      "Province": "Ontario"
    },
    "Status": 1
  },
  {
    "ZipCode": "L-8165",
    "Id": "01H98F4F8DEKYZT0R1T5EBG2EM",
    "Name": "InnoZ",
    "Location": { "Latitude": 49.6638448, "Longitude": 6.0872124 },
    "Address": {
      "Street": "81 Coolidge Hill",
      "Ward": "Ward 5",
      "City": "Bridel"
    },
    "Status": 0
  },
  {
    "ZipCode": "6807",
    "Id": "01H98F4F8HGS3FEBHEPZSKEAE2",
    "Name": "Pixonyx",
    "Location": { "Latitude": 14.5560877, "Longitude": 121.0155081 },
    "Address": {
      "Street": "21302 Sherman Trail",
      "Ward": "Ward 5",
      "City": "Salcedo",
      "ZipCode": "9404"
    },
    "Status": 0
  },
  {
    "ZipCode": "2453",
    "Id": "01H98F4F8KKAV631YKQ1ANS3WY",
    "Name": "Twiyo",
    "Location": { "Latitude": 42.5442603, "Longitude": 22.9616227 },
    "Address": {
      "Street": "762 Bluejay Way",
      "Ward": "Ward 3",
      "City": "Radomir",
      "ZipCode": "948-0212"
    },
    "Status": 1
  },
  {
    "ZipCode": "7737",
    "Id": "01H98F4F8NXT6F4ZQBX71NG6WE",
    "Name": "Wikizz",
    "Location": { "Latitude": 64.0128827, "Longitude": 11.496376 },
    "Address": {
      "Street": "12 Maple Wood Drive",
      "Ward": "Ward 4",
      "City": "Steinkjer",
      "Province": "Nord-Trondelag"
    },
    "Status": 1
  },
  {
    "ZipCode": "1209",
    "Id": "01H98F4F8P0ZFH5BNSRGWC1XXM",
    "Name": "Jabberstorm",
    "Location": { "Latitude": 46.2214936, "Longitude": 6.1238396 },
    "Address": {
      "Street": "63526 Declaration Court",
      "Ward": "Trường Thạnh",
      "City": "Genève",
      "Province": "Canton de Genève",
      "ZipCode": "3282"
    },
    "Status": 1
  },
  {
    "ZipCode": "4335",
    "Id": "01H98F4F8QGT5DRW5H75M7TJJH",
    "Name": "Wikido",
    "Location": { "Latitude": 16.0684136, "Longitude": 119.9874642 },
    "Address": {
      "Street": "7 Del Sol Lane",
      "Ward": "Ward 2",
      "City": "Linmansangan"
    },
    "Status": 1
  },
  {
    "ZipCode": "544529",
    "Id": "01H98F4F8WW0EDP4DG1HE7MM5D",
    "Name": "Fivebridge",
    "Location": { "Latitude": 7.539403, "Longitude": -72.77228 },
    "Address": {
      "Street": "91420 Dixon Crossing",
      "Ward": "Ward 5",
      "City": "Cucutilla",
      "ZipCode": "34299 CEDEX 5"
    },
    "Status": 0
  },
  {
    "ZipCode": "681008",
    "Id": "01H98F4F8XDX2JYJC5Q9H50CZ3",
    "Name": "Avavee",
    "Location": { "Latitude": 7.0427956, "Longitude": -73.1054544 },
    "Address": {
      "Street": "9468 Tennessee Lane",
      "Ward": "Ward 2",
      "City": "Floridablanca"
    },
    "Status": 0
  },
  {
    "ZipCode": "736 25",
    "Id": "01H98F4F8Y50EV22EBF47J2H45",
    "Name": "Gabtune",
    "Location": { "Latitude": 59.3938804, "Longitude": 15.8607653 },
    "Address": {
      "Street": "85181 Waubesa Pass",
      "Ward": "Ward 2",
      "City": "Kungsör",
      "Province": "Västmanland"
    },
    "Status": 1
  },
  {
    "ZipCode": "694210",
    "Id": "01H98F4F92SBZM9WDQQESC2PG4",
    "Name": "Centimia",
    "Location": { "Latitude": 49.1095977, "Longitude": 142.9448251 },
    "Address": {
      "Street": "14276 Warrior Trail",
      "Ward": "Ward 4",
      "City": "Gastello"
    },
    "Status": 0
  },
  {
    "ZipCode": "30302",
    "Id": "01H98F4F93ZVV3AS99KNPMEES8",
    "Name": "Topicware",
    "Location": { "Latitude": 9.9010414, "Longitude": -83.9977527 },
    "Address": {
      "Street": "83425 Harbort Circle",
      "Ward": "Ward 4",
      "City": "San Diego"
    },
    "Status": 0
  },
  {
    "ZipCode": "58225-000",
    "Id": "01H98F4F95S6WNM413X21SM47C",
    "Name": "Blogtags",
    "Location": { "Latitude": -6.7378881, "Longitude": -35.6860723 },
    "Address": {
      "Street": "12 Spenser Point",
      "Ward": "Ward 4",
      "City": "Solânea",
      "ZipCode": "5616"
    },
    "Status": 0
  },
  {
    "ZipCode": "L2V",
    "Id": "01H98F4F96D1G4S3K5DQ7V4DAR",
    "Name": "Kare",
    "Location": { "Latitude": 43.1135996, "Longitude": -79.2169174 },
    "Address": {
      "Street": "2107 Crowley Place",
      "Ward": "Ward 3",
      "City": "Thorold",
      "Province": "Ontario"
    },
    "Status": 0
  },
  {
    "ZipCode": "2826",
    "Id": "01H98F4F98WEJEFTDX00P9FG4V",
    "Name": "Gigazoom",
    "Location": { "Latitude": 10.6936663, "Longitude": 122.5655726 },
    "Address": {
      "Street": "31 Ramsey Terrace",
      "Ward": "Ward 5",
      "City": "Mabilog",
      "ZipCode": "63136"
    },
    "Status": 1
  },
  {
    "ZipCode": "14730-000",
    "Id": "01H98F4F994709PQ9C5DCYW4F7",
    "Name": "Mudo",
    "Location": { "Latitude": -20.8890637, "Longitude": -48.6790007 },
    "Address": {
      "Street": "71227 International Plaza",
      "Ward": "Ward 5",
      "City": "Monte Azul Paulista"
    },
    "Status": 1
  },
  {
    "ZipCode": "636450",
    "Id": "01H98F4F99ZP506VCHCZHR0N22",
    "Name": "Trudoo",
    "Location": { "Latitude": 58.3615767, "Longitude": 82.8403008 },
    "Address": {
      "Street": "3 Paget Court",
      "Ward": "Trường Thạnh",
      "City": "Togur"
    },
    "Status": 1
  },
  {
    "ZipCode": "27120",
    "Id": "01H98F4F9CF6XFSM8X74ERFJGB",
    "Name": "BlogXS",
    "Location": { "Latitude": 13.5215952, "Longitude": 102.1714454 },
    "Address": {
      "Street": "3588 Orin Circle",
      "Ward": "Ward 3",
      "City": "Wang Nam Yen"
    },
    "Status": 0
  },
  {
    "ZipCode": "45160",
    "Id": "01H98F4F9DVQQ4SJ0Z8EM6WHXP",
    "Name": "Voomm",
    "Location": { "Latitude": 15.823909, "Longitude": 103.8911999 },
    "Address": {
      "Street": "891 Tennessee Avenue",
      "Ward": "Ward 4",
      "City": "At Samat",
      "ZipCode": "526-0826"
    },
    "Status": 0
  },
  {
    "ZipCode": "08904",
    "Id": "01H98F4F9FPC4ERR461VEDX54Q",
    "Name": "Twimm",
    "Location": { "Latitude": 41.3730301, "Longitude": 2.116796 },
    "Address": {
      "Street": "924 Mesta Court",
      "Ward": "Trường Thạnh",
      "City": "Hospitalet De Llobregat, L'",
      "Province": "Cataluna"
    },
    "Status": 1
  },
  {
    "ZipCode": "P3N",
    "Id": "01H98F4F9HE9SBPK0948RR8T06",
    "Name": "Rhynyx",
    "Location": { "Latitude": 54.78036, "Longitude": -127.17428 },
    "Address": {
      "Street": "62848 Norway Maple Point",
      "Ward": "Ward 3",
      "City": "Smithers",
      "Province": "British Columbia"
    },
    "Status": 1
  },
  {
    "ZipCode": "34550",
    "Id": "01H98F4F9J8W0QFCCBA2G3AF33",
    "Name": "Skinte",
    "Location": { "Latitude": 62.9663709, "Longitude": 27.6707397 },
    "Address": {
      "Street": "32073 Forest Run Pass",
      "Ward": "Ward 2",
      "City": "Koukkuniemi",
      "ZipCode": "J5T"
    },
    "Status": 1
  },
  {
    "ZipCode": "25630",
    "Id": "01H98F4F9KC859Z3RNJ85W052Y",
    "Name": "BlogXS",
    "Location": { "Latitude": 60.1128845, "Longitude": 22.9535316 },
    "Address": {
      "Street": "5445 Harbort Pass",
      "Ward": "Ward 2",
      "City": "Särkisalo"
    },
    "Status": 0
  },
  {
    "ZipCode": "93335 CEDEX",
    "Id": "01H98F4F9MX079E0E1N6Q3ZTHH",
    "Name": "Tagpad",
    "Location": { "Latitude": 48.8537451, "Longitude": 2.53823 },
    "Address": {
      "Street": "0 Twin Pines Circle",
      "Ward": "Ward 5",
      "City": "Neuilly-sur-Marne",
      "Province": "Île-de-France"
    },
    "Status": 0
  },
  {
    "ZipCode": "22501",
    "Id": "01H98F4F9PDKTX8W84WWYKQ8X4",
    "Name": "Voolia",
    "Location": { "Latitude": 34.0556839, "Longitude": 73.1511314 },
    "Address": {
      "Street": "41933 Scoville Parkway",
      "Ward": "Trường Thạnh",
      "City": "Haveliān",
      "ZipCode": "7000"
    },
    "Status": 0
  },
  {
    "ZipCode": "47970-000",
    "Id": "01H98F4F9RVA4WS4TNC5QKGYQV",
    "Name": "Dabfeed",
    "Location": { "Latitude": -11.5527175, "Longitude": -45.2243578 },
    "Address": {
      "Street": "8 Grim Point",
      "Ward": "Ward 4",
      "City": "Riachão das Neves"
    },
    "Status": 0
  },
  {
    "ZipCode": "309090",
    "Id": "01H98F4F9TRMCJDGZWXW9MNWB3",
    "Name": "Meejo",
    "Location": { "Latitude": 50.6978262, "Longitude": 36.1738669 },
    "Address": {
      "Street": "97125 Tony Pass",
      "Ward": "Ward 3",
      "City": "Tomarovka"
    },
    "Status": 0
  },
  {
    "ZipCode": "68600-000",
    "Id": "01H98F4F9T3STQSCHXDVZTHM3B",
    "Name": "Centidel",
    "Location": { "Latitude": -1.0616193, "Longitude": -46.7830109 },
    "Address": {
      "Street": "11 Gateway Crossing",
      "Ward": "Ward 3",
      "City": "Bragança",
      "ZipCode": "30001"
    },
    "Status": 1
  },
  {
    "ZipCode": "700-0904",
    "Id": "01H98F4F9YYVF4NWJBG83YY2TP",
    "Name": "Divanoodle",
    "Location": { "Latitude": 32.19537, "Longitude": 130.02554 },
    "Address": {
      "Street": "59667 Helena Plaza",
      "Ward": "Ward 5",
      "City": "Ushibuka"
    },
    "Status": 1
  },
  {
    "ZipCode": "83120",
    "Id": "01H98F4FA0BX5ZAK3K3QBX3BHR",
    "Name": "Ntag",
    "Location": { "Latitude": 7.9047781, "Longitude": 98.3512841 },
    "Address": {
      "Street": "29 Pleasure Way",
      "Ward": "Ward 2",
      "City": "Wichit"
    },
    "Status": 0
  },
  {
    "ZipCode": "93820",
    "Id": "01H98F4FA1GXMZJ7CPE1FXR8K7",
    "Name": "Blogtags",
    "Location": { "Latitude": 18.6813049, "Longitude": -99.1013498 },
    "Address": {
      "Street": "448 Sunbrook Crossing",
      "Ward": "Ward 3",
      "City": "Morelos",
      "Province": "Veracruz Llave"
    },
    "Status": 1
  },
  {
    "ZipCode": "2540-170",
    "Id": "01H98F4FA3XCYGS4YR6QQBWVHX",
    "Name": "Photobug",
    "Location": { "Latitude": 39.2274333, "Longitude": -9.1706522 },
    "Address": {
      "Street": "44088 Derek Plaza",
      "Ward": "Trường Thạnh",
      "City": "Casalinho",
      "Province": "Leiria"
    },
    "Status": 1
  },
  {
    "ZipCode": "34-143",
    "Id": "01H98F4FA6EYRN4ADT1CKGYWVW",
    "Name": "Kamba",
    "Location": { "Latitude": 49.8413005, "Longitude": 19.7366045 },
    "Address": {
      "Street": "405 Cordelia Place",
      "Ward": "Ward 2",
      "City": "Lanckorona",
      "ZipCode": "60078"
    },
    "Status": 1
  },
  {
    "ZipCode": "L2N",
    "Id": "01H98F4FA7WHZTVK641P2PETPR",
    "Name": "Meetz",
    "Location": { "Latitude": 47.16663, "Longitude": -55.14829 },
    "Address": {
      "Street": "5 Pond Pass",
      "Ward": "Trường Thạnh",
      "City": "Marystown",
      "Province": "Newfoundland and Labrador",
      "ZipCode": "4401"
    },
    "Status": 1
  },
  {
    "ZipCode": "452800",
    "Id": "01H98F4FA8TA4VZPC1DSQ06C1Z",
    "Name": "Edgetag",
    "Location": { "Latitude": 56.2674828, "Longitude": 54.9252541 },
    "Address": {
      "Street": "9970 Melody Circle",
      "Ward": "Ward 5",
      "City": "Yanaul"
    },
    "Status": 1
  },
  {
    "ZipCode": "2985-209",
    "Id": "01H98F4FAAYZ36NF953E6G2H61",
    "Name": "Jaxbean",
    "Location": { "Latitude": 38.683885, "Longitude": -8.6109719 },
    "Address": {
      "Street": "2 Lyons Court",
      "Ward": "Ward 2",
      "City": "Pegões",
      "Province": "Setúbal"
    },
    "Status": 1
  },
  {
    "ZipCode": "6819",
    "Id": "01H98F4FADQ45ADVP6H9ZNK6B3",
    "Name": "Voomm",
    "Location": { "Latitude": 10.3764175, "Longitude": 119.1852645 },
    "Address": {
      "Street": "32 Mitchell Street",
      "Ward": "Ward 2",
      "City": "Port Barton",
      "ZipCode": "15604"
    },
    "Status": 0
  },
  {
    "ZipCode": "22304 CEDEX",
    "Id": "01H98F4FAF8ZBFQ45DQ852D672",
    "Name": "Flipopia",
    "Location": { "Latitude": 0, "Longitude": 2.8125 },
    "Address": {
      "Street": "7 Columbus Street",
      "Ward": "Ward 3",
      "City": "Lannion",
      "Province": "Bretagne",
      "ZipCode": "561 85"
    },
    "Status": 1
  },
  {
    "ZipCode": "83040 CEDEX 9",
    "Id": "01H98F4FAG3WG3AQ1CAXW45YP7",
    "Name": "Skimia",
    "Location": { "Latitude": 43.1283145, "Longitude": 5.9294606 },
    "Address": {
      "Street": "26623 Stuart Way",
      "Ward": "Ward 2",
      "City": "Toulon",
      "Province": "Provence-Alpes-Côte d'Azur",
      "ZipCode": "3240-466"
    },
    "Status": 0
  },
  {
    "ZipCode": "4900",
    "Id": "01H98F4FAHZWCTRTT1HWZAJGW4",
    "Name": "Riffwire",
    "Location": { "Latitude": 13.3585301, "Longitude": 121.8247013 },
    "Address": {
      "Street": "13605 Ramsey Lane",
      "Ward": "Ward 2",
      "City": "Masiga",
      "ZipCode": "7210"
    },
    "Status": 1
  },
  {
    "ZipCode": "15250",
    "Id": "01H98F4FAJFW2PFN2SPT5FQ8A9",
    "Name": "Jabberbean",
    "Location": { "Latitude": 40.44, "Longitude": -79.9599999 },
    "Address": {
      "Street": "7590 Memorial Pass",
      "Ward": "Trường Thạnh",
      "City": "Pittsburgh",
      "Province": "Pennsylvania"
    },
    "Status": 0
  },
  {
    "ZipCode": "5382",
    "Id": "01H98F4FAK04TMDB6JDZRR6KTR",
    "Name": "Jaxnation",
    "Location": { "Latitude": -31.9974697, "Longitude": 27.6640187 },
    "Address": {
      "Street": "9930 Dottie Hill",
      "Ward": "Trường Thạnh",
      "City": "Cofimvaba"
    },
    "Status": 1
  },
  {
    "ZipCode": "28890-000",
    "Id": "01H98F4FAXHPQ89MBGSJRTC5HY",
    "Name": "Bubblemix",
    "Location": { "Latitude": -22.4206096, "Longitude": -41.8625084 },
    "Address": {
      "Street": "45844 Luster Court",
      "Ward": "Ward 5",
      "City": "Rio das Ostras"
    },
    "Status": 0
  },
  {
    "ZipCode": "E7E",
    "Id": "01H98F4FAY5GQCWHTRP052Z8NR",
    "Name": "DabZ",
    "Location": { "Latitude": 47.216667, "Longitude": -67.916667 },
    "Address": {
      "Street": "16 Burning Wood Terrace",
      "Ward": "Ward 2",
      "City": "Harrison Brook",
      "Province": "New Brunswick"
    },
    "Status": 1
  },
  {
    "ZipCode": "98620",
    "Id": "01H98F4FAZQZQX90YN83Z1MQGN",
    "Name": "Yakidoo",
    "Location": { "Latitude": -14.29034, "Longitude": -178.16551 },
    "Address": {
      "Street": "4203 North Drive",
      "Ward": "Ward 4",
      "City": "Sigavé",
      "ZipCode": "L-5408"
    },
    "Status": 1
  },
  {
    "ZipCode": "1100",
    "Id": "01H98F4FB3JWS313MKEGQTN4K4",
    "Name": "Dabshots",
    "Location": { "Latitude": 15.6286312, "Longitude": 121.0607193 },
    "Address": {
      "Street": "68 Golden Leaf Way",
      "Ward": "Ward 5",
      "City": "Piñahan"
    },
    "Status": 1
  },
  {
    "ZipCode": "361327",
    "Id": "01H98F4FB59VZMPZ6164AVRFV5",
    "Name": "Centimia",
    "Location": { "Latitude": 43.47139, "Longitude": 43.84694 },
    "Address": {
      "Street": "607 Main Circle",
      "Ward": "Ward 3",
      "City": "Staryy Cherek"
    },
    "Status": 1
  },
  {
    "ZipCode": "052837",
    "Id": "01H98F4FB8MDXYZC1SD53D7W2F",
    "Name": "Browsetype",
    "Location": { "Latitude": 6.772879, "Longitude": -74.796476 },
    "Address": {
      "Street": "1 Mosinee Point",
      "Ward": "Ward 2",
      "City": "Vegachí"
    },
    "Status": 0
  },
  {
    "ZipCode": "783 72",
    "Id": "01H98F4FBAFTD6DGH481C7JTBN",
    "Name": "Zooveo",
    "Location": { "Latitude": 49.5519718, "Longitude": 17.3375604 },
    "Address": {
      "Street": "570 Autumn Leaf Circle",
      "Ward": "Ward 5",
      "City": "Velký Týnec"
    },
    "Status": 1
  },
  {
    "ZipCode": "09300-000",
    "Id": "01H98F4FBBGN3PJAKRXFVZ2T17",
    "Name": "Lazz",
    "Location": { "Latitude": -23.668163, "Longitude": -46.4617086 },
    "Address": {
      "Street": "0791 Larry Crossing",
      "Ward": "Ward 3",
      "City": "Mauá",
      "ZipCode": "150449"
    },
    "Status": 0
  },
  {
    "ZipCode": "74704 CEDEX",
    "Id": "01H98F4FBFQ6WEVG39KT55CK3B",
    "Name": "Eadel",
    "Location": { "Latitude": 45.945945, "Longitude": 6.6371251 },
    "Address": {
      "Street": "82 Golden Leaf Plaza",
      "Ward": "Trường Thạnh",
      "City": "Sallanches",
      "Province": "Rhône-Alpes",
      "ZipCode": "48880-000"
    },
    "Status": 0
  },
  {
    "ZipCode": "4643",
    "Id": "01H98F4FBG1T69VW01PCSY9FWA",
    "Name": "Babbleset",
    "Location": { "Latitude": -24.1973637, "Longitude": -65.2994788 },
    "Address": {
      "Street": "913 Lotheville Alley",
      "Ward": "Trường Thạnh",
      "City": "Rinconada"
    },
    "Status": 1
  },
  {
    "ZipCode": "23514",
    "Id": "01H98F4FBMCHT3PYDXCN2WQ9ZE",
    "Name": "Thoughtblab",
    "Location": { "Latitude": 36.8466981, "Longitude": -76.2900032 },
    "Address": {
      "Street": "94 Shoshone Center",
      "Ward": "Ward 3",
      "City": "Norfolk",
      "Province": "Virginia"
    },
    "Status": 0
  },
  {
    "ZipCode": "43240",
    "Id": "01H98F4FBQ61ETB4P53X5VJDJH",
    "Name": "Gabspot",
    "Location": { "Latitude": 40.1420033, "Longitude": -82.9770371 },
    "Address": {
      "Street": "6649 Melrose Junction",
      "Ward": "Ward 2",
      "City": "Columbus",
      "Province": "Ohio"
    },
    "Status": 1
  },
  {
    "ZipCode": "170513",
    "Id": "01H98F4FBXASJ2Y2847EATRFPN",
    "Name": "Skippad",
    "Location": { "Latitude": 56.9084942, "Longitude": 36.234674 },
    "Address": {
      "Street": "954 American Pass",
      "Ward": "Ward 5",
      "City": "Orsha"
    },
    "Status": 0
  },
  {
    "ZipCode": "V31",
    "Id": "01H98F4FC0V35PQVKH4HT5JYC5",
    "Name": "Wordify",
    "Location": { "Latitude": 53.0917381, "Longitude": -8.2215941 },
    "Address": {
      "Street": "71 West Park",
      "Ward": "Trường Thạnh",
      "City": "Portumna"
    },
    "Status": 0
  },
  {
    "ZipCode": "A83",
    "Id": "01H98F4FC26TYBH85D7416EGP0",
    "Name": "Zoomlounge",
    "Location": { "Latitude": 53.3655256, "Longitude": -6.3077823 },
    "Address": {
      "Street": "762 Glendale Point",
      "Ward": "Ward 3",
      "City": "Valleymount",
      "ZipCode": "G9A"
    },
    "Status": 0
  },
  {
    "ZipCode": "361012",
    "Id": "01H98F4FC3GGG0W2A40RCQYPH7",
    "Name": "Yadel",
    "Location": { "Latitude": 45.4289, "Longitude": 40.5244001 },
    "Address": {
      "Street": "8401 Katie Terrace",
      "Ward": "Ward 5",
      "City": "Kropotkin",
      "ZipCode": "1870"
    },
    "Status": 1
  },
  {
    "ZipCode": "4124",
    "Id": "01H98F4FC44S4QJJG0JC3F109T",
    "Name": "Feedfire",
    "Location": { "Latitude": 14.1843767, "Longitude": 120.7959491 },
    "Address": {
      "Street": "35407 Green Ridge Way",
      "Ward": "Ward 3",
      "City": "General Emilio Aguinaldo",
      "ZipCode": "9600"
    },
    "Status": 0
  },
  {
    "ZipCode": "63-640",
    "Id": "01H98F4FC56D5JA9N6VJW4SBWA",
    "Name": "Jayo",
    "Location": { "Latitude": 51.2820434, "Longitude": 17.9082196 },
    "Address": {
      "Street": "21056 Briar Crest Road",
      "Ward": "Ward 4",
      "City": "Bralin",
      "ZipCode": "B40"
    },
    "Status": 1
  },
  {
    "ZipCode": "95940-000",
    "Id": "01H98F4FC6M7844154Z90CZ5C8",
    "Name": "Twinder",
    "Location": { "Latitude": -29.3652193, "Longitude": -51.9580164 },
    "Address": {
      "Street": "20436 Westridge Circle",
      "Ward": "Ward 3",
      "City": "Arroio do Meio"
    },
    "Status": 1
  },
  {
    "ZipCode": "429127",
    "Id": "01H98F4FC7RVZD2QBP68R48ZCF",
    "Name": "Dablist",
    "Location": { "Latitude": 55.5039231, "Longitude": 46.3984938 },
    "Address": {
      "Street": "7522 Thompson Center",
      "Ward": "Ward 4",
      "City": "Shumerlya"
    },
    "Status": 1
  },
  {
    "ZipCode": "352244",
    "Id": "01H98F4FCAFWJ70YX1FT9DRSNA",
    "Name": "Oyonder",
    "Location": { "Latitude": 45.1141124, "Longitude": 41.0051614 },
    "Address": {
      "Street": "2 Cambridge Point",
      "Ward": "Ward 2",
      "City": "Novokubansk"
    },
    "Status": 0
  },
  {
    "ZipCode": "31407",
    "Id": "01H98F4FCCBNEE9VE4N849F0M9",
    "Name": "Browsecat",
    "Location": { "Latitude": 4.6096768, "Longitude": 101.1064003 },
    "Address": {
      "Street": "9 Miller Place",
      "Ward": "Ward 5",
      "City": "Ipoh",
      "Province": "Perak"
    },
    "Status": 0
  },
  {
    "ZipCode": "89135",
    "Id": "01H98F4FCEVVPE4TTCXGV0C6JR",
    "Name": "Rhyzio",
    "Location": { "Latitude": 36.1100428, "Longitude": -115.3667218 },
    "Address": {
      "Street": "31 Loomis Drive",
      "Ward": "Ward 2",
      "City": "Las Vegas",
      "Province": "Nevada",
      "ZipCode": "38-473"
    },
    "Status": 0
  },
  {
    "ZipCode": "418049",
    "Id": "01H98F4FCFZWHY8NY26P23XVNC",
    "Name": "Voonte",
    "Location": { "Latitude": 1.932389, "Longitude": -76.214046 },
    "Address": {
      "Street": "62079 Warner Avenue",
      "Ward": "Ward 2",
      "City": "Isnos"
    },
    "Status": 1
  },
  {
    "ZipCode": "4624",
    "Id": "01H98F4FCH56Z8A3X0ZP6GETZX",
    "Name": "Divape",
    "Location": { "Latitude": -24.3817381, "Longitude": -65.1218129 },
    "Address": {
      "Street": "57 Dunning Center",
      "Ward": "Trường Thạnh",
      "City": "Maimará",
      "ZipCode": "3887"
    },
    "Status": 0
  },
  {
    "ZipCode": "241551",
    "Id": "01H98F4FCKS6Y70XJAF324PXAB",
    "Name": "Eadel",
    "Location": { "Latitude": 53.3656498, "Longitude": 34.1098425 },
    "Address": {
      "Street": "77 Di Loreto Avenue",
      "Ward": "Ward 3",
      "City": "Sel’tso",
      "ZipCode": "081067"
    },
    "Status": 1
  },
  {
    "ZipCode": "168 74",
    "Id": "01H98F4FCMJE5FWB9J8SDBMRCT",
    "Name": "Avaveo",
    "Location": { "Latitude": 59.3449175, "Longitude": 17.9492451 },
    "Address": {
      "Street": "71568 Sunbrook Circle",
      "Ward": "Ward 2",
      "City": "Bromma",
      "Province": "Stockholm"
    },
    "Status": 0
  },
  {
    "ZipCode": "1555",
    "Id": "01H98F4FCRQJKQQZQY5ES0HD9R",
    "Name": "Eimbee",
    "Location": { "Latitude": 6.8954177, "Longitude": 126.0203934 },
    "Address": {
      "Street": "2 Sherman Circle",
      "Ward": "Ward 5",
      "City": "Ilangay"
    },
    "Status": 1
  },
  {
    "ZipCode": "44958 CEDEX 9",
    "Id": "01H98F4FE2SRAQE8C15FTR2S3E",
    "Name": "Jaloo",
    "Location": { "Latitude": 47.2550409, "Longitude": -1.5401497 },
    "Address": {
      "Street": "60 Sycamore Drive",
      "Ward": "Ward 5",
      "City": "Nantes",
      "Province": "Pays de la Loire",
      "ZipCode": "J8R"
    },
    "Status": 0
  },
  {
    "ZipCode": "90140",
    "Id": "01H98F4FE3P1QBVAEJT07RHA21",
    "Name": "Twitternation",
    "Location": { "Latitude": 7.7896079, "Longitude": 100.3048897 },
    "Address": {
      "Street": "16270 Calypso Street",
      "Ward": "Ward 3",
      "City": "Ranot"
    },
    "Status": 0
  },
  {
    "ZipCode": "90110",
    "Id": "01H98F4FE52ZBR88E1F1JMVQ54",
    "Name": "Twimbo",
    "Location": { "Latitude": 7.0086472, "Longitude": 100.4746879 },
    "Address": {
      "Street": "2 Boyd Alley",
      "Ward": "Ward 5",
      "City": "Hat Yai"
    },
    "Status": 1
  },
  {
    "ZipCode": "353400",
    "Id": "01H98F4FE6CHJ2BNYSGG06GZTP",
    "Name": "Shufflester",
    "Location": { "Latitude": 45.0206335, "Longitude": 37.5017499 },
    "Address": {
      "Street": "48516 Manitowish Place",
      "Ward": "Ward 5",
      "City": "Gostagayevskaya"
    },
    "Status": 1
  },
  {
    "ZipCode": "68870-000",
    "Id": "01H98F4FE8H1QG5EX9N6S2PYH8",
    "Name": "Skippad",
    "Location": { "Latitude": -0.5083679, "Longitude": -48.6388879 },
    "Address": {
      "Street": "841 Armistice Junction",
      "Ward": "Ward 5",
      "City": "Soure",
      "ZipCode": "195047"
    },
    "Status": 0
  },
  {
    "ZipCode": "21001",
    "Id": "01H98F4FEBPX9P4B0FXPWAH4GJ",
    "Name": "Aibox",
    "Location": { "Latitude": 54.6219097, "Longitude": 24.9344265 },
    "Address": {
      "Street": "83 Fisk Way",
      "Ward": "Ward 4",
      "City": "Trakai",
      "ZipCode": "4425"
    },
    "Status": 1
  },
  {
    "ZipCode": "183 15",
    "Id": "01H98F4FEC32Z1VZRMZJFBQ0TQ",
    "Name": "Twitternation",
    "Location": { "Latitude": 59.4445121, "Longitude": 18.071399 },
    "Address": {
      "Street": "83 Bellgrove Junction",
      "Ward": "Ward 3",
      "City": "Täby",
      "Province": "Stockholm",
      "ZipCode": "4025"
    },
    "Status": 1
  },
  {
    "ZipCode": "6330",
    "Id": "01H98F4FEDS8RV0ZDHYHWEGSF9",
    "Name": "Demizz",
    "Location": { "Latitude": -34.6230015, "Longitude": -58.5764959 },
    "Address": {
      "Street": "95476 Corben Street",
      "Ward": "Ward 2",
      "City": "Catriló",
      "ZipCode": "2627"
    },
    "Status": 1
  },
  {
    "ZipCode": "18730-000",
    "Id": "01H98F4FEGZBWDQWFWN392T5E5",
    "Name": "Tazzy",
    "Location": { "Latitude": -23.4217742, "Longitude": -49.0924714 },
    "Address": {
      "Street": "4378 Green Avenue",
      "Ward": "Trường Thạnh",
      "City": "Itaí",
      "ZipCode": "37174 CEDEX"
    },
    "Status": 0
  },
  {
    "ZipCode": "59463 CEDEX",
    "Id": "01H98F4FEH7W71F3Q3PBK9CG82",
    "Name": "Quinu",
    "Location": { "Latitude": 50.6503044, "Longitude": 2.9982752 },
    "Address": {
      "Street": "29667 Monterey Alley",
      "Ward": "Ward 3",
      "City": "Lomme",
      "Province": "Nord-Pas-de-Calais"
    },
    "Status": 1
  },
  {
    "ZipCode": "636785",
    "Id": "01H98F4FEJGRMTK09NTRJ3NXGR",
    "Name": "Babblestorm",
    "Location": { "Latitude": 60.7353362, "Longitude": 77.6065163 },
    "Address": {
      "Street": "830 Dwight Street",
      "Ward": "Ward 3",
      "City": "Strezhevoy"
    },
    "Status": 1
  },
  {
    "ZipCode": "1853",
    "Id": "01H98F4FENP5XPPFCAK5NSM5PM",
    "Name": "Flashset",
    "Location": { "Latitude": 55.6755324, "Longitude": 12.5366206 },
    "Address": {
      "Street": "32 Maryland Hill",
      "Ward": "Ward 2",
      "City": "Frederiksberg",
      "Province": "Region Hovedstaden",
      "ZipCode": "10270"
    },
    "Status": 0
  },
  {
    "ZipCode": "40160",
    "Id": "01H98F4FEPDMP0679GR4K8B2HD",
    "Name": "Twimm",
    "Location": { "Latitude": 18.2886378, "Longitude": -99.4526826 },
    "Address": {
      "Street": "38 Express Alley",
      "Ward": "Trường Thạnh",
      "City": "Lazaro Cardenas",
      "Province": "Guerrero",
      "ZipCode": "781 29"
    },
    "Status": 1
  },
  {
    "ZipCode": "71085",
    "Id": "01H98F4FEVMEA9NJGD72461X0Q",
    "Name": "Skinix",
    "Location": { "Latitude": 55.07917, "Longitude": 22.97583 },
    "Address": {
      "Street": "80 La Follette Alley",
      "Ward": "Ward 4",
      "City": "Gelgaudiškis",
      "ZipCode": "55900-000"
    },
    "Status": 0
  },
  {
    "ZipCode": "91965 CEDEX",
    "Id": "01H98F4FEYE4DJ86EB8T9VATJR",
    "Name": "Edgeify",
    "Location": { "Latitude": 48.695223, "Longitude": 2.190167 },
    "Address": {
      "Street": "2500 Center Crossing",
      "Ward": "Ward 2",
      "City": "Courtaboeuf",
      "Province": "Île-de-France"
    },
    "Status": 1
  },
  {
    "ZipCode": "25501",
    "Id": "01H98F4FF0PD8BPDYPM9PM2A97",
    "Name": "Linkbuzz",
    "Location": { "Latitude": 60.2285503, "Longitude": 23.1228098 },
    "Address": {
      "Street": "52 Summerview Trail",
      "Ward": "Ward 5",
      "City": "Perniö",
      "ZipCode": "1033"
    },
    "Status": 0
  },
  {
    "ZipCode": "78020 CEDEX",
    "Id": "01H98F4FF2PCVKK1H753TVXJP1",
    "Name": "Brightbean",
    "Location": { "Latitude": 48.8048649, "Longitude": 2.1203554 },
    "Address": {
      "Street": "1428 Monument Place",
      "Ward": "Ward 2",
      "City": "Versailles",
      "Province": "Île-de-France",
      "ZipCode": "113 39"
    },
    "Status": 1
  },
  {
    "ZipCode": "352272",
    "Id": "01H98F4FF397PT4EWK5VTFMN4D",
    "Name": "Tekfly",
    "Location": { "Latitude": 44.2147685, "Longitude": 41.5683289 },
    "Address": {
      "Street": "21 Burning Wood Lane",
      "Ward": "Ward 4",
      "City": "Udobnaya",
      "ZipCode": "2416"
    },
    "Status": 1
  },
  {
    "ZipCode": "7220-357",
    "Id": "01H98F4FF495D0MSFMGW1BD7PJ",
    "Name": "Viva",
    "Location": { "Latitude": 38.3089089, "Longitude": -7.7085755 },
    "Address": {
      "Street": "61221 Maple Wood Road",
      "Ward": "Ward 5",
      "City": "Portel",
      "Province": "Évora"
    },
    "Status": 1
  },
  {
    "ZipCode": "34643",
    "Id": "01H98F4FF68HQXSVF40B4N73ZJ",
    "Name": "Quinu",
    "Location": { "Latitude": 33.7484047, "Longitude": -116.3520354 },
    "Address": {
      "Street": "5141 Hansons Hill",
      "Ward": "Ward 2",
      "City": "Largo",
      "Province": "Florida",
      "ZipCode": "33673"
    },
    "Status": 1
  },
  {
    "ZipCode": "651 01",
    "Id": "01H98F4FFAXW486Y727MC19BN5",
    "Name": "Gabtype",
    "Location": { "Latitude": 59.379366, "Longitude": 13.503977 },
    "Address": {
      "Street": "19 Barnett Parkway",
      "Ward": "Ward 4",
      "City": "Karlstad",
      "Province": "Värmland",
      "ZipCode": "33411"
    },
    "Status": 0
  },
  {
    "ZipCode": "5285",
    "Id": "01H98F4FFBD5AKNGC00KRB4CN9",
    "Name": "Voonte",
    "Location": { "Latitude": -32.9817511, "Longitude": -60.6944851 },
    "Address": {
      "Street": "2 Ramsey Court",
      "Ward": "Ward 5",
      "City": "Camilo Aldao"
    },
    "Status": 0
  },
  {
    "ZipCode": "4004",
    "Id": "01H98F4FFDDQSPWVY39B0M9ETM",
    "Name": "Divape",
    "Location": { "Latitude": 51.9094928, "Longitude": 5.4352554 },
    "Address": {
      "Street": "90 Everett Pass",
      "Ward": "Trường Thạnh",
      "City": "Tiel",
      "Province": "Provincie Gelderland",
      "ZipCode": "2338"
    },
    "Status": 0
  },
  {
    "ZipCode": "9610",
    "Id": "01H98F4FFE1EJ6YVTCMVGW0E87",
    "Name": "Dabfeed",
    "Location": { "Latitude": 8.9215342, "Longitude": 117.5532603 },
    "Address": {
      "Street": "877 Sachtjen Park",
      "Ward": "Ward 5",
      "City": "Panalingaan",
      "ZipCode": "97-420"
    },
    "Status": 0
  },
  {
    "ZipCode": "5285",
    "Id": "01H98F4FFFS9PDPKSQC9YDT0BZ",
    "Name": "Shufflebeat",
    "Location": { "Latitude": -32.9817511, "Longitude": -60.6944851 },
    "Address": {
      "Street": "7 Mosinee Place",
      "Ward": "Ward 5",
      "City": "Camilo Aldao",
      "ZipCode": "23890-000"
    },
    "Status": 1
  },
  {
    "ZipCode": "937 91",
    "Id": "01H98F4FFGA77V7QSV6DRCS5QS",
    "Name": "Skipstorm",
    "Location": { "Latitude": 64.6025198, "Longitude": 20.4852704 },
    "Address": {
      "Street": "1 Nova Trail",
      "Ward": "Ward 3",
      "City": "Burträsk",
      "Province": "Västerbotten",
      "ZipCode": "5911"
    },
    "Status": 1
  },
  {
    "ZipCode": "338 45",
    "Id": "01H98F4FFMRV854Y3QX78W1HT9",
    "Name": "Skippad",
    "Location": { "Latitude": 49.735524, "Longitude": 13.7575556 },
    "Address": {
      "Street": "305 Talmadge Street",
      "Ward": "Ward 2",
      "City": "Strašice"
    },
    "Status": 0
  },
  {
    "ZipCode": "76000",
    "Id": "01H98F4FFRYZ37KR5FXFB6VT6H",
    "Name": "Tagopia",
    "Location": { "Latitude": 25.3681203, "Longitude": 68.3122196 },
    "Address": {
      "Street": "1985 Pennsylvania Court",
      "Ward": "Ward 3",
      "City": "Kotri",
      "ZipCode": "257 08"
    },
    "Status": 1
  },
  {
    "ZipCode": "1040",
    "Id": "01H98F4FFTG4ZJZV4R2X9V5KAX",
    "Name": "Kayveo",
    "Location": { "Latitude": 41.9986907, "Longitude": 21.4874715 },
    "Address": {
      "Street": "0207 Morningstar Pass",
      "Ward": "Ward 4",
      "City": "Čair"
    },
    "Status": 1
  },
  {
    "ZipCode": "J1S",
    "Id": "01H98F4FFV5GW8D2TZH40HNJNG",
    "Name": "Reallinks",
    "Location": { "Latitude": 45.5787215, "Longitude": -72.001055 },
    "Address": {
      "Street": "41 Doe Crossing Plaza",
      "Ward": "Ward 2",
      "City": "Windsor",
      "Province": "Québec",
      "ZipCode": "75216"
    },
    "Status": 1
  },
  {
    "ZipCode": "32-400",
    "Id": "01H98F4FFW5AHAC95FSYZX7CR6",
    "Name": "Mydo",
    "Location": { "Latitude": 49.83347, "Longitude": 19.93965 },
    "Address": {
      "Street": "716 Bonner Road",
      "Ward": "Ward 4",
      "City": "Myślenice",
      "ZipCode": "40324"
    },
    "Status": 0
  },
  {
    "ZipCode": "186806",
    "Id": "01H98F4FG2H2WAXAZVNXCWXKQ3",
    "Name": "Flashpoint",
    "Location": { "Latitude": 61.7575929, "Longitude": 31.0233095 },
    "Address": {
      "Street": "507 Cambridge Point",
      "Ward": "Trường Thạnh",
      "City": "Lyaskelya"
    },
    "Status": 1
  },
  {
    "ZipCode": "78504 CEDEX",
    "Id": "01H98F4FG367P1WFPHVDY2CE67",
    "Name": "Rhybox",
    "Location": { "Latitude": 48.9378251, "Longitude": 2.1570562 },
    "Address": {
      "Street": "570 Norway Maple Street",
      "Ward": "Ward 4",
      "City": "Sartrouville",
      "Province": "Île-de-France",
      "ZipCode": "612-8447"
    },
    "Status": 1
  },
  {
    "ZipCode": "6341",
    "Id": "01H98F4FG7CP1F0W6T4A13Q8WR",
    "Name": "Mybuzz",
    "Location": { "Latitude": 14.6074523, "Longitude": 121.1136216 },
    "Address": {
      "Street": "9374 Myrtle Trail",
      "Ward": "Ward 5",
      "City": "Cortes",
      "ZipCode": "2525"
    },
    "Status": 0
  },
  {
    "ZipCode": "92511 CEDEX",
    "Id": "01H98F4FG87GJ7HVG9CX06SFWS",
    "Name": "Realblab",
    "Location": { "Latitude": 48.830394, "Longitude": 2.2372823 },
    "Address": {
      "Street": "20449 Memorial Alley",
      "Ward": "Ward 4",
      "City": "Boulogne-Billancourt",
      "Province": "Île-de-France"
    },
    "Status": 1
  },
  {
    "ZipCode": "57900-000",
    "Id": "01H98F4FGD45SFYF7DZ0NGCH29",
    "Name": "Mynte",
    "Location": { "Latitude": -9.0047392, "Longitude": -35.4124355 },
    "Address": {
      "Street": "5 Barby Pass",
      "Ward": "Trường Thạnh",
      "City": "Porto Calvo"
    },
    "Status": 0
  },
  {
    "ZipCode": "J8R",
    "Id": "01H98F4FGG63HDX0AD4ECDG9NE",
    "Name": "Muxo",
    "Location": { "Latitude": 45.4139794, "Longitude": -75.7103682 },
    "Address": {
      "Street": "40508 Anzinger Junction",
      "Ward": "Ward 3",
      "City": "Unity",
      "Province": "Saskatchewan"
    },
    "Status": 0
  },
  {
    "ZipCode": "7340-214",
    "Id": "01H98F4FGHVK0SPNNQZZMYWC72",
    "Name": "Rhynoodle",
    "Location": { "Latitude": 39.1935336, "Longitude": -7.2866952 },
    "Address": {
      "Street": "26 Gale Center",
      "Ward": "Ward 4",
      "City": "Mosteiros",
      "Province": "Portalegre"
    },
    "Status": 1
  },
  {
    "ZipCode": "6281",
    "Id": "01H98F4FGNGJ4BWSWCSCC6D76W",
    "Name": "Ozu",
    "Location": { "Latitude": 45.5746977, "Longitude": 13.7677916 },
    "Address": {
      "Street": "5105 Manufacturers Center",
      "Ward": "Trường Thạnh",
      "City": "Hrvatini",
      "ZipCode": "652245"
    },
    "Status": 1
  },
  {
    "ZipCode": "18-105",
    "Id": "01H98F4FGPKDMQXXE93JMKVNB0",
    "Name": "DabZ",
    "Location": { "Latitude": 52.9490114, "Longitude": 22.9564233 },
    "Address": {
      "Street": "44694 Iowa Terrace",
      "Ward": "Ward 5",
      "City": "Suraż",
      "ZipCode": "3105"
    },
    "Status": 1
  },
  {
    "ZipCode": "646604",
    "Id": "01H98F4FGS42FWK9AF4CHBXXMZ",
    "Name": "Cogidoo",
    "Location": { "Latitude": 54.9850214, "Longitude": 83.0470827 },
    "Address": {
      "Street": "59 Corben Drive",
      "Ward": "Trường Thạnh",
      "City": "Inya"
    },
    "Status": 0
  },
  {
    "ZipCode": "9754",
    "Id": "01H98F4FGT9QESNPSABF7HY6RK",
    "Name": "Blogtags",
    "Location": { "Latitude": -30.6866136, "Longitude": 26.7063745 },
    "Address": {
      "Street": "33799 Oriole Place",
      "Ward": "Ward 4",
      "City": "Aliwal North",
      "ZipCode": "182 74"
    },
    "Status": 1
  },
  {
    "ZipCode": "30648",
    "Id": "01H98F4FGYBMM6X226VE2HRWQN",
    "Name": "Zoombeat",
    "Location": { "Latitude": 4.6096768, "Longitude": 101.1064003 },
    "Address": {
      "Street": "4 Orin Parkway",
      "Ward": "Ward 3",
      "City": "Ipoh",
      "Province": "Perak"
    },
    "Status": 1
  },
  {
    "ZipCode": "85760-000",
    "Id": "01H98F4FH1EM9S6NX90280PCWM",
    "Name": "Skinder",
    "Location": { "Latitude": -25.6200963, "Longitude": -53.758612 },
    "Address": {
      "Street": "786 Novick Circle",
      "Ward": "Ward 3",
      "City": "Capanema"
    },
    "Status": 1
  },
  {
    "ZipCode": "1084",
    "Id": "01H98F4FH28CPB87X6JBSF02PY",
    "Name": "Blogspan",
    "Location": { "Latitude": 8.4864751, "Longitude": 124.7352102 },
    "Address": {
      "Street": "951 East Point",
      "Ward": "Trường Thạnh",
      "City": "Conduaga"
    },
    "Status": 0
  },
  {
    "ZipCode": "84160-000",
    "Id": "01H98F4FH3G368HV7GGRNT39S5",
    "Name": "Agivu",
    "Location": { "Latitude": -24.7902746, "Longitude": -49.7728757 },
    "Address": {
      "Street": "501 Commercial Way",
      "Ward": "Ward 5",
      "City": "Castro"
    },
    "Status": 0
  },
  {
    "ZipCode": "6004",
    "Id": "01H98F4FH5QX98K74GWYGQZBY1",
    "Name": "Jabberbean",
    "Location": { "Latitude": 46.9067373, "Longitude": 19.691788 },
    "Address": {
      "Street": "09 Anderson Circle",
      "Ward": "Ward 3",
      "City": "Kecskemét",
      "Province": "Bács-Kiskun",
      "ZipCode": "4770-354"
    },
    "Status": 1
  },
  {
    "ZipCode": "4534",
    "Id": "01H98F4FH7EP3DKMYSWT1FW8N8",
    "Name": "Tekfly",
    "Location": { "Latitude": 52.359151, "Longitude": 5.1999127 },
    "Address": {
      "Street": "2 Bayside Terrace",
      "Ward": "Ward 4",
      "City": "Terneuzen",
      "Province": "Provincie Zeeland"
    },
    "Status": 0
  },
  {
    "ZipCode": "H71",
    "Id": "01H98F4FH92E03AF9J42J98QCW",
    "Name": "Tekfly",
    "Location": { "Latitude": 51.9166667, "Longitude": -8.05 },
    "Address": {
      "Street": "032 Erie Trail",
      "Ward": "Ward 3",
      "City": "Castlemartyr",
      "ZipCode": "38840-000"
    },
    "Status": 1
  },
  {
    "ZipCode": "5121",
    "Id": "01H98F4FHBE78Z8JGYR2WV2H6Q",
    "Name": "Divavu",
    "Location": { "Latitude": -27.8341089, "Longitude": 25.9063474 },
    "Address": {
      "Street": "078 Grayhawk Crossing",
      "Ward": "Ward 4",
      "City": "Hoopstad"
    },
    "Status": 0
  },
  {
    "ZipCode": "9960",
    "Id": "01H98F4FHC5AXGQ9RN30GQ71C9",
    "Name": "Eare",
    "Location": { "Latitude": 43.6165639, "Longitude": 27.091526 },
    "Address": {
      "Street": "82651 Golden Leaf Trail",
      "Ward": "Ward 5",
      "City": "Kaolinovo"
    },
    "Status": 0
  },
  {
    "ZipCode": "80638",
    "Id": "01H98F4FHDB1SP1ETJ75BZNAAE",
    "Name": "Browsedrive",
    "Location": { "Latitude": 40.42, "Longitude": -104.7099999 },
    "Address": {
      "Street": "77 Graceland Park",
      "Ward": "Trường Thạnh",
      "City": "Greeley",
      "Province": "Colorado"
    },
    "Status": 0
  },
  {
    "ZipCode": "23005",
    "Id": "01H98F4FHEHBW3VBD3DAR7410F",
    "Name": "Rhynoodle",
    "Location": { "Latitude": 37.7801069, "Longitude": -3.8235525 },
    "Address": {
      "Street": "5 Bayside Pass",
      "Ward": "Ward 2",
      "City": "Jaen",
      "Province": "Andalucia",
      "ZipCode": "999-8531"
    },
    "Status": 0
  },
  {
    "ZipCode": "4105",
    "Id": "01H98F4FHKA9Z5G9P82G4QSKG0",
    "Name": "Gigashots",
    "Location": { "Latitude": 14.434698, "Longitude": 120.878011 },
    "Address": {
      "Street": "3 Sage Lane",
      "Ward": "Trường Thạnh",
      "City": "Noveleta",
      "ZipCode": "171270"
    },
    "Status": 1
  },
  {
    "ZipCode": "9103",
    "Id": "01H98F4FHNP6V8GTSK3PP3M4PM",
    "Name": "Muxo",
    "Location": { "Latitude": -37.9707308, "Longitude": -57.6258993 },
    "Address": {
      "Street": "138 Nobel Place",
      "Ward": "Ward 2",
      "City": "Rawson",
      "ZipCode": "S7W"
    },
    "Status": 1
  },
  {
    "ZipCode": "542 95",
    "Id": "01H98F4FHPF0P2F6HK79M2DQDV",
    "Name": "Avamm",
    "Location": { "Latitude": 58.6429512, "Longitude": 13.6587955 },
    "Address": {
      "Street": "47 Brown Trail",
      "Ward": "Ward 3",
      "City": "Mariestad",
      "Province": "Västra Götaland"
    },
    "Status": 1
  },
  {
    "ZipCode": "4507",
    "Id": "01H98F4FHQBTPSJ1JMKK3W08F5",
    "Name": "Zoombox",
    "Location": { "Latitude": 14.5706006, "Longitude": 121.0052221 },
    "Address": {
      "Street": "5 Pawling Point",
      "Ward": "Ward 5",
      "City": "Sagrada Familia"
    },
    "Status": 1
  },
  {
    "ZipCode": "427060",
    "Id": "01H98F4FJ03A85W7MMRNGE4B6P",
    "Name": "Realcube",
    "Location": { "Latitude": 57.652547, "Longitude": 53.8103933 },
    "Address": {
      "Street": "49518 Anniversary Road",
      "Ward": "Ward 4",
      "City": "Debesy"
    },
    "Status": 0
  },
  {
    "ZipCode": "91948 CEDEX",
    "Id": "01H98F4FJ14SGJGDND5W4KY1BP",
    "Name": "Buzzshare",
    "Location": { "Latitude": 48.695223, "Longitude": 2.190167 },
    "Address": {
      "Street": "00 Burrows Court",
      "Ward": "Ward 5",
      "City": "Courtaboeuf",
      "Province": "Île-de-France",
      "ZipCode": "26120"
    },
    "Status": 1
  },
  {
    "ZipCode": "142308",
    "Id": "01H98F4FJ2RHKNZEW7H7VQAJRM",
    "Name": "Dabjam",
    "Location": { "Latitude": 55.1653099, "Longitude": 37.6076437 },
    "Address": {
      "Street": "6040 Packers Terrace",
      "Ward": "Ward 3",
      "City": "Chekhov"
    },
    "Status": 0
  },
  {
    "ZipCode": "9317",
    "Id": "01H98F4FJ4H7H6NAC3EVGMGDX6",
    "Name": "Dablist",
    "Location": { "Latitude": 16.0406339, "Longitude": 120.5903599 },
    "Address": {
      "Street": "86109 Mandrake Parkway",
      "Ward": "Ward 2",
      "City": "Puncan"
    },
    "Status": 1
  },
  {
    "ZipCode": "15600",
    "Id": "01H98F4FJ5YWTE9BPSF85W1VV0",
    "Name": "Skilith",
    "Location": { "Latitude": 28.1732341, "Longitude": 68.0179319 },
    "Address": {
      "Street": "59 Oakridge Place",
      "Ward": "Ward 5",
      "City": "Alīābad",
      "ZipCode": "11130"
    },
    "Status": 1
  },
  {
    "ZipCode": "999-0436",
    "Id": "01H98F4FJ7CKX3XW84YAFYQDC3",
    "Name": "Nlounge",
    "Location": { "Latitude": 37.9058553, "Longitude": 139.8418907 },
    "Address": {
      "Street": "97865 Maywood Center",
      "Ward": "Ward 3",
      "City": "Iwakura"
    },
    "Status": 1
  },
  {
    "ZipCode": "747 91",
    "Id": "01H98F4FJFSTBNFJ26WYHE5FGR",
    "Name": "Browsedrive",
    "Location": { "Latitude": 49.9146804, "Longitude": 18.0123649 },
    "Address": {
      "Street": "0 Swallow Terrace",
      "Ward": "Ward 3",
      "City": "Štítina"
    },
    "Status": 0
  },
  {
    "ZipCode": "18130-000",
    "Id": "01H98F4FJJ4ZXS6D7C6K6WJ22E",
    "Name": "Youfeed",
    "Location": { "Latitude": -23.5257248, "Longitude": -47.1322342 },
    "Address": {
      "Street": "57330 Northwestern Junction",
      "Ward": "Trường Thạnh",
      "City": "São Roque"
    },
    "Status": 0
  },
  {
    "ZipCode": "93900-000",
    "Id": "01H98F4FJNN7YRT99TRM45WK1Z",
    "Name": "Brainbox",
    "Location": { "Latitude": -29.5795648, "Longitude": -51.1689963 },
    "Address": {
      "Street": "3903 Westridge Hill",
      "Ward": "Trường Thạnh",
      "City": "Ivoti"
    },
    "Status": 0
  },
  {
    "ZipCode": "4274",
    "Id": "01H98F4FJPSM28M3HY14V21J0D",
    "Name": "Dabtype",
    "Location": { "Latitude": 46.4232734, "Longitude": 14.1113375 },
    "Address": {
      "Street": "77091 Warrior Hill",
      "Ward": "Ward 2",
      "City": "Koroška Bela",
      "ZipCode": "6344"
    },
    "Status": 1
  },
  {
    "ZipCode": "34-125",
    "Id": "01H98F4FJQ66YVKWGD012FXDMA",
    "Name": "Oyope",
    "Location": { "Latitude": 49.8151822, "Longitude": 19.3771749 },
    "Address": {
      "Street": "1251 Kenwood Plaza",
      "Ward": "Ward 3",
      "City": "Zagórnik",
      "ZipCode": "93584"
    },
    "Status": 0
  },
  {
    "ZipCode": "25130",
    "Id": "01H98F4FJREXBQHR1T550157KJ",
    "Name": "Brightdog",
    "Location": { "Latitude": 60.3496505, "Longitude": 23.2799707 },
    "Address": {
      "Street": "3 Fairfield Junction",
      "Ward": "Trường Thạnh",
      "City": "Muurla"
    },
    "Status": 1
  },
  {
    "ZipCode": "429720",
    "Id": "01H98F4FJTQXCAPP73EQM6CDDB",
    "Name": "Dazzlesphere",
    "Location": { "Latitude": 55.195577, "Longitude": 47.0592319 },
    "Address": {
      "Street": "034 Esch Street",
      "Ward": "Trường Thạnh",
      "City": "Buinsk",
      "ZipCode": "1804"
    },
    "Status": 0
  },
  {
    "ZipCode": "43110",
    "Id": "01H98F4FJV2TCWPX7PYA3NZYPH",
    "Name": "Plambee",
    "Location": { "Latitude": 17.8064459, "Longitude": 102.5527505 },
    "Address": {
      "Street": "0 Riverside Trail",
      "Ward": "Ward 5",
      "City": "Tha Bo",
      "ZipCode": "62606"
    },
    "Status": 0
  },
  {
    "ZipCode": "664 61",
    "Id": "01H98F4FJZTARMGD5CAM5DDF2Q",
    "Name": "Eimbee",
    "Location": { "Latitude": 49.090211, "Longitude": 16.6038816 },
    "Address": {
      "Street": "9507 Graedel Way",
      "Ward": "Ward 4",
      "City": "Rajhrad",
      "ZipCode": "2821"
    },
    "Status": 0
  },
  {
    "ZipCode": "1239",
    "Id": "01H98F4FK3YSVH7TJ8XTNZHFP5",
    "Name": "Voomm",
    "Location": { "Latitude": 40.9900603, "Longitude": 21.4193769 },
    "Address": {
      "Street": "24203 Lakeland Center",
      "Ward": "Ward 3",
      "City": "Centar Župa",
      "ZipCode": "69850-000"
    },
    "Status": 0
  },
  {
    "ZipCode": "58-111",
    "Id": "01H98F4FK4NX4MDVJA5095PGZ3",
    "Name": "Edgeify",
    "Location": { "Latitude": 49.94912, "Longitude": 18.4033 },
    "Address": {
      "Street": "137 Vermont Plaza",
      "Ward": "Trường Thạnh",
      "City": "Gorzyczki"
    },
    "Status": 0
  },
  {
    "ZipCode": "195047",
    "Id": "01H98F4FK5QQRH1CRTAR7HQ3ZW",
    "Name": "Vipe",
    "Location": { "Latitude": 1.683061, "Longitude": -77.072933 },
    "Address": {
      "Street": "68794 Eggendart Lane",
      "Ward": "Ward 4",
      "City": "Florencia"
    },
    "Status": 0
  },
  {
    "ZipCode": "5212",
    "Id": "01H98F4FK7E3GF022QS709JRDP",
    "Name": "Meembee",
    "Location": { "Latitude": -37.9973752, "Longitude": -57.5825246 },
    "Address": {
      "Street": "19986 Elmside Hill",
      "Ward": "Trường Thạnh",
      "City": "Avellaneda"
    },
    "Status": 0
  },
  {
    "ZipCode": "446154",
    "Id": "01H98F4FK81VCDMQZ6HF59FD0W",
    "Name": "Cogidoo",
    "Location": { "Latitude": 52.6653765, "Longitude": 49.7198694 },
    "Address": {
      "Street": "52 Beilfuss Terrace",
      "Ward": "Ward 4",
      "City": "Pavlovka",
      "ZipCode": "48970-000"
    },
    "Status": 0
  },
  {
    "ZipCode": "32575",
    "Id": "01H98F4FKD6JX4SF12WG308PJ6",
    "Name": "Babblestorm",
    "Location": { "Latitude": 30.475663, "Longitude": -87.193563 },
    "Address": {
      "Street": "884 Myrtle Place",
      "Ward": "Trường Thạnh",
      "City": "Pensacola",
      "Province": "Florida",
      "ZipCode": "176048"
    },
    "Status": 0
  },
  {
    "ZipCode": "3053",
    "Id": "01H98F4FKE5H3YM5XQV9EB55ZR",
    "Name": "Trupe",
    "Location": { "Latitude": 43.2625974, "Longitude": 23.6556259 },
    "Address": {
      "Street": "53 Prentice Way",
      "Ward": "Ward 2",
      "City": "Vratsa",
      "ZipCode": "5607"
    },
    "Status": 1
  },
  {
    "ZipCode": "142970",
    "Id": "01H98F4FKGNP97M5H1JZ1BRM23",
    "Name": "Topdrive",
    "Location": { "Latitude": 54.4691259, "Longitude": 38.7201031 },
    "Address": {
      "Street": "2 Prairieview Park",
      "Ward": "Trường Thạnh",
      "City": "Serebryanyye Prudy",
      "ZipCode": "90305"
    },
    "Status": 0
  },
  {
    "ZipCode": "38-340",
    "Id": "01H98F4FKNCTHCRVTB34MGF66R",
    "Name": "Jamia",
    "Location": { "Latitude": 49.73554, "Longitude": 21.26331 },
    "Address": {
      "Street": "0835 Morning Pass",
      "Ward": "Ward 5",
      "City": "Biecz"
    },
    "Status": 0
  },
  {
    "ZipCode": "G8K",
    "Id": "01H98F4FKPK01V2RZW23XGRWNF",
    "Name": "Brightbean",
    "Location": { "Latitude": 48.6513092, "Longitude": -72.4519727 },
    "Address": {
      "Street": "6871 Fisk Point",
      "Ward": "Ward 4",
      "City": "Saint-Félicien",
      "Province": "Québec"
    },
    "Status": 1
  },
  {
    "ZipCode": "7214",
    "Id": "01H98F4FKRM6ZG7FRHMYXY23AM",
    "Name": "Tanoodle",
    "Location": { "Latitude": 10.3570129, "Longitude": 123.9839638 },
    "Address": {
      "Street": "0 Crest Line Way",
      "Ward": "Trường Thạnh",
      "City": "Bagakay"
    },
    "Status": 0
  },
  {
    "ZipCode": "32128",
    "Id": "01H98F4FKTG8ZPNK188QRJ87ZC",
    "Name": "Babbleopia",
    "Location": { "Latitude": 29.084946, "Longitude": -81.0644263 },
    "Address": {
      "Street": "51 Carberry Point",
      "Ward": "Ward 3",
      "City": "Daytona Beach",
      "Province": "Florida"
    },
    "Status": 1
  },
  {
    "ZipCode": "10600",
    "Id": "01H98F4FKVFTVS7W2EZFZ6CYQV",
    "Name": "Trupe",
    "Location": { "Latitude": 6.9280156, "Longitude": 79.8908308 },
    "Address": {
      "Street": "0748 Hollow Ridge Plaza",
      "Ward": "Ward 3",
      "City": "Battaramulla South"
    },
    "Status": 0
  },
  {
    "ZipCode": "78304 CEDEX",
    "Id": "01H98F4FKX9HTQR043W3CJHYT2",
    "Name": "Mudo",
    "Location": { "Latitude": 48.9330384, "Longitude": 2.0412764 },
    "Address": {
      "Street": "91 Main Crossing",
      "Ward": "Ward 3",
      "City": "Poissy",
      "Province": "Île-de-France",
      "ZipCode": "78682"
    },
    "Status": 1
  },
  {
    "ZipCode": "052027",
    "Id": "01H98F4FKYHMSJPH6V7D7N2PBG",
    "Name": "Meevee",
    "Location": { "Latitude": 6.979498, "Longitude": -75.2966019 },
    "Address": {
      "Street": "407 Commercial Place",
      "Ward": "Ward 2",
      "City": "Campamento",
      "ZipCode": "45218"
    },
    "Status": 1
  },
  {
    "ZipCode": "38-112",
    "Id": "01H98F4FM48FF1DCH34PDPQZCR",
    "Name": "Gigashots",
    "Location": { "Latitude": 49.8501369, "Longitude": 21.894173 },
    "Address": {
      "Street": "9 Tomscot Junction",
      "Ward": "Ward 5",
      "City": "Jawornik"
    },
    "Status": 1
  },
  {
    "ZipCode": "1590",
    "Id": "01H98F4FM5BNAP24M7GJZCXQ5N",
    "Name": "Devify",
    "Location": { "Latitude": -26.360436, "Longitude": 28.451357 },
    "Address": {
      "Street": "025 Springview Circle",
      "Ward": "Trường Thạnh",
      "City": "Nigel"
    },
    "Status": 1
  },
  {
    "ZipCode": "665442",
    "Id": "01H98F4FM607D7HD5TC05C8QF8",
    "Name": "BlogXS",
    "Location": { "Latitude": 55.87784, "Longitude": 38.95423 },
    "Address": {
      "Street": "03 Eliot Court",
      "Ward": "Ward 5",
      "City": "Malaya Dubna",
      "ZipCode": "8045"
    },
    "Status": 1
  },
  {
    "ZipCode": "79503",
    "Id": "01H98F4FMASB7A2GMWZQTYDNMV",
    "Name": "Twiyo",
    "Location": { "Latitude": 1.4190683, "Longitude": 103.652859 },
    "Address": {
      "Street": "70580 Shopko Hill",
      "Ward": "Ward 5",
      "City": "Nusajaya",
      "Province": "Johor"
    },
    "Status": 1
  },
  {
    "ZipCode": "7541",
    "Id": "01H98F4FMCGNNSRA4QXCFZFXHZ",
    "Name": "Camimbo",
    "Location": { "Latitude": 41.6338439, "Longitude": 25.3777119 },
    "Address": {
      "Street": "0 Westport Alley",
      "Ward": "Ward 4",
      "City": "Kaynardzha"
    },
    "Status": 1
  },
  {
    "ZipCode": "J4B",
    "Id": "01H98F4FMD887BFF3BJM6D9AF7",
    "Name": "Blogtags",
    "Location": { "Latitude": 45.5833482, "Longitude": -73.4372336 },
    "Address": {
      "Street": "81 Messerschmidt Point",
      "Ward": "Trường Thạnh",
      "City": "Boucherville",
      "Province": "Québec",
      "ZipCode": "37464-000"
    },
    "Status": 1
  },
  {
    "ZipCode": "63304 CEDEX",
    "Id": "01H98F4FMKKFKB8Z1SENFZ0V25",
    "Name": "Twitterwire",
    "Location": { "Latitude": 45.85029, "Longitude": 3.53936 },
    "Address": {
      "Street": "30 Shasta Road",
      "Ward": "Ward 2",
      "City": "Thiers",
      "Province": "Auvergne"
    },
    "Status": 0
  },
  {
    "ZipCode": "8038",
    "Id": "01H98F4FMVWQTMKJCGVEKTPZZ9",
    "Name": "Yozio",
    "Location": { "Latitude": 67.278155, "Longitude": 14.4159346 },
    "Address": {
      "Street": "0 Bellgrove Park",
      "Ward": "Ward 5",
      "City": "Bodø",
      "Province": "Nordland",
      "ZipCode": "3700-732"
    },
    "Status": 1
  },
  {
    "ZipCode": "K2H",
    "Id": "01H98F4FN04ATZ3D8DJTS0ACBH",
    "Name": "Trilia",
    "Location": { "Latitude": 49.11654, "Longitude": -117.55222 },
    "Address": {
      "Street": "670 Bluejay Avenue",
      "Ward": "Ward 3",
      "City": "Fruitvale",
      "Province": "British Columbia",
      "ZipCode": "242760"
    },
    "Status": 1
  },
  {
    "ZipCode": "624214",
    "Id": "01H98F4FN2NZ4MVTANMQZWT924",
    "Name": "Rhynyx",
    "Location": { "Latitude": 58.6922, "Longitude": 59.832 },
    "Address": {
      "Street": "9 Golf Course Terrace",
      "Ward": "Ward 2",
      "City": "Yëlkino",
      "ZipCode": "1950"
    },
    "Status": 1
  },
  {
    "ZipCode": "AD300",
    "Id": "01H98F4FN5KAF2E3YXN221SKXV",
    "Name": "Meejo",
    "Location": { "Latitude": 42.5556547, "Longitude": 1.5330732 },
    "Address": {
      "Street": "25590 Paget Place",
      "Ward": "Ward 3",
      "City": "Ordino"
    },
    "Status": 1
  },
  {
    "ZipCode": "682038",
    "Id": "01H98F4FNA0PFV10ZP8FF238MH",
    "Name": "Realfire",
    "Location": { "Latitude": 6.6242047, "Longitude": -72.7924612 },
    "Address": {
      "Street": "08907 Loftsgordon Avenue",
      "Ward": "Ward 4",
      "City": "Molagavita",
      "ZipCode": "633130"
    },
    "Status": 0
  },
  {
    "ZipCode": "696 81",
    "Id": "01H98F4FNCBT5PM808287H3H2Y",
    "Name": "Oyoloo",
    "Location": { "Latitude": 48.9486344, "Longitude": 17.2848785 },
    "Address": {
      "Street": "5376 Little Fleur Place",
      "Ward": "Ward 2",
      "City": "Bzenec",
      "ZipCode": "5461"
    },
    "Status": 0
  },
  {
    "ZipCode": "142817",
    "Id": "01H98F4FNEBYDP3BNV53V9JE7H",
    "Name": "Twitternation",
    "Location": { "Latitude": 55.658365, "Longitude": 37.615691 },
    "Address": {
      "Street": "5 Sunbrook Trail",
      "Ward": "Ward 3",
      "City": "Nagornyy"
    },
    "Status": 0
  },
  {
    "ZipCode": "300999",
    "Id": "01H98F4FNHGR68HVAT26H9XW7Z",
    "Name": "Roodel",
    "Location": { "Latitude": 54.1649073, "Longitude": 37.5852425 },
    "Address": {
      "Street": "57 Hansons Junction",
      "Ward": "Trường Thạnh",
      "City": "Tula"
    },
    "Status": 1
  },
  {
    "ZipCode": "63700-000",
    "Id": "01H98F4FNJFBH18YC751D9S5TF",
    "Name": "Tekfly",
    "Location": { "Latitude": -5.178204, "Longitude": -40.6695522 },
    "Address": {
      "Street": "94138 Debs Point",
      "Ward": "Ward 2",
      "City": "Crateús",
      "ZipCode": "30629"
    },
    "Status": 0
  },
  {
    "ZipCode": "16200-000",
    "Id": "01H98F4FNPE8YTRZWT3YFM2ZT8",
    "Name": "Zoozzy",
    "Location": { "Latitude": -21.2915055, "Longitude": -50.3436312 },
    "Address": {
      "Street": "80441 Esker Crossing",
      "Ward": "Ward 2",
      "City": "Birigui"
    },
    "Status": 1
  },
  {
    "ZipCode": "368212",
    "Id": "01H98F4FNQ3S99M0414393N4PR",
    "Name": "Oba",
    "Location": { "Latitude": 53.8035238, "Longitude": 86.8634095 },
    "Address": {
      "Street": "498 Vidon Drive",
      "Ward": "Ward 5",
      "City": "Prokop’yevsk",
      "ZipCode": "26-630"
    },
    "Status": 1
  },
  {
    "ZipCode": "V9A",
    "Id": "01H98F4FNS65WVDR955ZP2G9S3",
    "Name": "Twiyo",
    "Location": { "Latitude": 48.4373686, "Longitude": -123.4112839 },
    "Address": {
      "Street": "26008 Cardinal Plaza",
      "Ward": "Ward 4",
      "City": "Victoria",
      "Province": "British Columbia"
    },
    "Status": 1
  },
  {
    "ZipCode": "8303",
    "Id": "01H98F4FNT2D9TVQM5JQ1CD2SX",
    "Name": "JumpXS",
    "Location": { "Latitude": 8.9800511, "Longitude": 126.2545687 },
    "Address": {
      "Street": "756 Southridge Street",
      "Ward": "Ward 2",
      "City": "Bayabas"
    },
    "Status": 0
  },
  {
    "ZipCode": "76140",
    "Id": "01H98F4FNXXWE1086JX2C6H7FY",
    "Name": "Skivee",
    "Location": { "Latitude": 13.2394415, "Longitude": 99.7901781 },
    "Address": {
      "Street": "5 Thackeray Crossing",
      "Ward": "Ward 2",
      "City": "Khao Yoi",
      "ZipCode": "ZTN"
    },
    "Status": 1
  },
  {
    "ZipCode": "8608",
    "Id": "01H98F4FP0E5DDN6ZNGT4JPWXZ",
    "Name": "Yakidoo",
    "Location": { "Latitude": 14.5672317, "Longitude": 121.0298199 },
    "Address": {
      "Street": "8342 Fairfield Street",
      "Ward": "Ward 2",
      "City": "Santiago"
    },
    "Status": 0
  },
  {
    "ZipCode": "573 36",
    "Id": "01H98F4FP1W132DJGZB58CWK9D",
    "Name": "Devshare",
    "Location": { "Latitude": 58.0275087, "Longitude": 15.0052213 },
    "Address": {
      "Street": "6 Kings Parkway",
      "Ward": "Ward 2",
      "City": "Tranås",
      "Province": "Jönköping"
    },
    "Status": 0
  },
  {
    "ZipCode": "10587",
    "Id": "01H98F4FP2J81DJD1XDEM7QDEG",
    "Name": "Oyoloo",
    "Location": { "Latitude": 52.5170826, "Longitude": 13.3236611 },
    "Address": {
      "Street": "06 Pierstorff Trail",
      "Ward": "Trường Thạnh",
      "City": "Berlin",
      "Province": "Berlin"
    },
    "Status": 0
  },
  {
    "ZipCode": "8400-661",
    "Id": "01H98F4FP5KAAGJB7VKRC9TFSG",
    "Name": "Tekfly",
    "Location": { "Latitude": 37.1408036, "Longitude": -8.8622841 },
    "Address": {
      "Street": "9377 Johnson Pass",
      "Ward": "Trường Thạnh",
      "City": "Aldeia da Bela Vista",
      "Province": "Faro",
      "ZipCode": "45922 CEDEX 9"
    },
    "Status": 0
  },
  {
    "ZipCode": "446154",
    "Id": "01H98F4FP7Y04QB6CZ3QY4J4XW",
    "Name": "Zooveo",
    "Location": { "Latitude": 52.6653765, "Longitude": 49.7198694 },
    "Address": {
      "Street": "2 Farwell Avenue",
      "Ward": "Ward 5",
      "City": "Pavlovka"
    },
    "Status": 0
  },
  {
    "ZipCode": "D04",
    "Id": "01H98F4FPA7XXYHEM2X936QND3",
    "Name": "Jabbercube",
    "Location": { "Latitude": 53.3347733, "Longitude": -6.2427004 },
    "Address": {
      "Street": "7 Ridge Oak Crossing",
      "Ward": "Trường Thạnh",
      "City": "Dublin"
    },
    "Status": 1
  },
  {
    "ZipCode": "J3V",
    "Id": "01H98F4FPDTD0S1CRZ5TN543RM",
    "Name": "Rhyloo",
    "Location": { "Latitude": 45.5257774, "Longitude": -73.3436918 },
    "Address": {
      "Street": "2662 Anderson Alley",
      "Ward": "Ward 5",
      "City": "Saint-Bruno-de-Montarville",
      "Province": "Québec"
    },
    "Status": 1
  },
  {
    "ZipCode": "04004",
    "Id": "01H98F4FPF6047SDSEEPXTH3B9",
    "Name": "Vidoo",
    "Location": { "Latitude": 14.7567271, "Longitude": -90.9199977 },
    "Address": {
      "Street": "43038 Sunfield Terrace",
      "Ward": "Ward 3",
      "City": "Comalapa"
    },
    "Status": 1
  },
  {
    "ZipCode": "629405",
    "Id": "01H98F4FPJBB2S6XJFS9XJBK51",
    "Name": "Blognation",
    "Location": { "Latitude": 66.6557632, "Longitude": 66.3898319 },
    "Address": {
      "Street": "5 Shoshone Alley",
      "Ward": "Ward 4",
      "City": "Labytnangi",
      "ZipCode": "3220"
    },
    "Status": 0
  },
  {
    "ZipCode": "2317",
    "Id": "01H98F4FPMB5Z0T444D4AD3N97",
    "Name": "Vitz",
    "Location": { "Latitude": 7.01806, "Longitude": 124.18056 },
    "Address": {
      "Street": "694 Northport Place",
      "Ward": "Trường Thạnh",
      "City": "Blinsung"
    },
    "Status": 0
  },
  {
    "ZipCode": "3837",
    "Id": "01H98F4FPQM01P0XBW9W64Y7JS",
    "Name": "Wordpedia",
    "Location": { "Latitude": -26.0440358, "Longitude": 28.1574467 },
    "Address": {
      "Street": "67995 Meadow Valley Junction",
      "Ward": "Ward 2",
      "City": "Bhisho",
      "ZipCode": "3105-378"
    },
    "Status": 0
  },
  {
    "ZipCode": "446017",
    "Id": "01H98F4FPTB4N5ZEY6KEKRKD1A",
    "Name": "Meedoo",
    "Location": { "Latitude": 11.2428856, "Longitude": -73.4062342 },
    "Address": {
      "Street": "24 Pennsylvania Junction",
      "Ward": "Trường Thạnh",
      "City": "Dibulla",
      "ZipCode": "22-604"
    },
    "Status": 0
  },
  {
    "ZipCode": "3332",
    "Id": "01H98F4FPX2Z5SF0966WMVCHYV",
    "Name": "Twitterworks",
    "Location": { "Latitude": 7.1650433, "Longitude": 124.8772813 },
    "Address": {
      "Street": "2780 Porter Plaza",
      "Ward": "Ward 5",
      "City": "Kulaman"
    },
    "Status": 0
  },
  {
    "ZipCode": "669-5313",
    "Id": "01H98F4FPZ6BEC2FJ47GEXSJK0",
    "Name": "Bubblemix",
    "Location": { "Latitude": 35.4693091, "Longitude": 134.7938651 },
    "Address": {
      "Street": "9 Macpherson Point",
      "Ward": "Ward 3",
      "City": "Tsuruoka",
      "ZipCode": "84147 CEDEX"
    },
    "Status": 1
  },
  {
    "ZipCode": "172460",
    "Id": "01H98F4FQ0F8BKRVG0TP263END",
    "Name": "Realpoint",
    "Location": { "Latitude": 55.8502008, "Longitude": 32.2633061 },
    "Address": {
      "Street": "91 Messerschmidt Hill",
      "Ward": "Ward 4",
      "City": "Zharkovskiy",
      "ZipCode": "76200-000"
    },
    "Status": 0
  },
  {
    "ZipCode": "547079",
    "Id": "01H98F4FQ3RBFEG0EASMCTQF3Q",
    "Name": "Jetpulse",
    "Location": { "Latitude": 8.50874, "Longitude": -73.4488 },
    "Address": {
      "Street": "6 Grasskamp Junction",
      "Ward": "Ward 3",
      "City": "El Carmen",
      "ZipCode": "779-0311"
    },
    "Status": 1
  },
  {
    "ZipCode": "111711",
    "Id": "01H98F4FQ7QYEG2Z4B4Y4NC2T2",
    "Name": "Babbleset",
    "Location": { "Latitude": 4.5943745, "Longitude": -74.0740729 },
    "Address": {
      "Street": "16 Linden Point",
      "Ward": "Ward 4",
      "City": "Candelaria"
    },
    "Status": 0
  },
  {
    "ZipCode": "8088",
    "Id": "01H98F4FQ9ASDW8PHRXSKXJ634",
    "Name": "Yambee",
    "Location": { "Latitude": 47.3774041, "Longitude": 8.5113801 },
    "Address": {
      "Street": "75557 Utah Trail",
      "Ward": "Ward 3",
      "City": "Zürich",
      "Province": "Kanton Zürich"
    },
    "Status": 0
  },
  {
    "ZipCode": "9615",
    "Id": "01H98F4FQAPP9GKF3457Q7SHPW",
    "Name": "Trudoo",
    "Location": { "Latitude": 7.5166669, "Longitude": 124.3666687 },
    "Address": {
      "Street": "408 Sheridan Avenue",
      "Ward": "Ward 4",
      "City": "Mataya"
    },
    "Status": 0
  },
  {
    "ZipCode": "673613",
    "Id": "01H98F4FQCZG2PSB50B20ASN9J",
    "Name": "Roomm",
    "Location": { "Latitude": 51.3035449, "Longitude": 117.8793825 },
    "Address": {
      "Street": "5 Clarendon Alley",
      "Ward": "Ward 2",
      "City": "Vershino-Shakhtaminskiy",
      "ZipCode": "7250"
    },
    "Status": 1
  },
  {
    "ZipCode": "22-650",
    "Id": "01H98F4FQED9QKA6V30J16XM75",
    "Name": "Realcube",
    "Location": { "Latitude": 50.5332417, "Longitude": 23.7255557 },
    "Address": {
      "Street": "330 Sutherland Court",
      "Ward": "Ward 2",
      "City": "Łaszczów",
      "ZipCode": "72404 CEDEX"
    },
    "Status": 0
  },
  {
    "ZipCode": "929-1576",
    "Id": "01H98F4FQFGV4NV0XASYEP3JY7",
    "Name": "Voomm",
    "Location": { "Latitude": 36.9382393, "Longitude": 136.8170714 },
    "Address": {
      "Street": "96 Luster Trail",
      "Ward": "Ward 3",
      "City": "Hakui",
      "ZipCode": "28009 CEDEX"
    },
    "Status": 1
  },
  {
    "ZipCode": "89105",
    "Id": "01H98F4FQG9BBYJAYN543RYF3Z",
    "Name": "Thoughtblab",
    "Location": { "Latitude": 35.99, "Longitude": -115.09 },
    "Address": {
      "Street": "99422 Troy Court",
      "Ward": "Ward 5",
      "City": "Las Vegas",
      "Province": "Nevada",
      "ZipCode": "33010 CEDEX"
    },
    "Status": 0
  },
  {
    "ZipCode": "968-0442",
    "Id": "01H98F4FQKB7907SC78N51RE2Y",
    "Name": "Quire",
    "Location": { "Latitude": 37.3032401, "Longitude": 139.3751118 },
    "Address": {
      "Street": "8 Graceland Parkway",
      "Ward": "Ward 2",
      "City": "Nagahama"
    },
    "Status": 0
  },
  {
    "ZipCode": "5017",
    "Id": "01H98F4FQM9D1KTS57FPKQRK93",
    "Name": "Blogpad",
    "Location": { "Latitude": 11.4693878, "Longitude": 123.1476046 },
    "Address": {
      "Street": "077 Sommers Plaza",
      "Ward": "Ward 3",
      "City": "Estancia"
    },
    "Status": 0
  },
  {
    "ZipCode": "14470-000",
    "Id": "01H98F4FQP0PWQ2NCW2A22W3SK",
    "Name": "Brightbean",
    "Location": { "Latitude": -20.2562227, "Longitude": -47.4810384 },
    "Address": {
      "Street": "47418 Kinsman Plaza",
      "Ward": "Trường Thạnh",
      "City": "Pedregulho"
    },
    "Status": 1
  },
  {
    "ZipCode": "4730-264",
    "Id": "01H98F4FQRZJPP69C0Z59KACFD",
    "Name": "Vidoo",
    "Location": { "Latitude": 41.6714042, "Longitude": -8.410695 },
    "Address": {
      "Street": "63 Harper Trail",
      "Ward": "Ward 2",
      "City": "Lanhas",
      "Province": "Braga",
      "ZipCode": "D6W"
    },
    "Status": 1
  },
  {
    "ZipCode": "152047",
    "Id": "01H98F4FQW9G2S85PEV0NNHC2C",
    "Name": "Brainbox",
    "Location": { "Latitude": 5.768717, "Longitude": -72.831906 },
    "Address": {
      "Street": "99272 Dahle Street",
      "Ward": "Ward 4",
      "City": "Tópaga"
    },
    "Status": 1
  },
  {
    "ZipCode": "763547",
    "Id": "01H98F4FRB1VT1869A9EDBD70T",
    "Name": "Avavee",
    "Location": { "Latitude": 3.5737543, "Longitude": -76.01598 },
    "Address": {
      "Street": "0 Clarendon Hill",
      "Ward": "Trường Thạnh",
      "City": "Palmira",
      "ZipCode": "999-7754"
    },
    "Status": 1
  },
  {
    "ZipCode": "7319",
    "Id": "01H98F4FRCBG3WGQ8ZT5WFK9ZT",
    "Name": "Demivee",
    "Location": { "Latitude": 43.7728532, "Longitude": 26.5290794 },
    "Address": {
      "Street": "88716 Bluejay Road",
      "Ward": "Ward 4",
      "City": "Medovene",
      "ZipCode": "70211"
    },
    "Status": 0
  },
  {
    "ZipCode": "386250",
    "Id": "01H98F4FRGFHV3GE52TQX5MHPA",
    "Name": "Gevee",
    "Location": { "Latitude": 43.2374865, "Longitude": 45.0503473 },
    "Address": {
      "Street": "03 Mosinee Avenue",
      "Ward": "Ward 2",
      "City": "Nesterovskaya"
    },
    "Status": 0
  },
  {
    "ZipCode": "36-047",
    "Id": "01H98F4FRHDJSTH4E2XSKXEVF8",
    "Name": "Mudo",
    "Location": { "Latitude": 50.0028883, "Longitude": 21.8964008 },
    "Address": {
      "Street": "97 Dixon Pass",
      "Ward": "Ward 4",
      "City": "Lutoryż",
      "ZipCode": "K34"
    },
    "Status": 0
  },
  {
    "ZipCode": "445359",
    "Id": "01H98F4FRJPWDE13WHDWAZRRR0",
    "Name": "Tanoodle",
    "Location": { "Latitude": 53.3797233, "Longitude": 49.5564219 },
    "Address": {
      "Street": "94 Commercial Street",
      "Ward": "Ward 3",
      "City": "Zhigulevsk"
    },
    "Status": 0
  },
  {
    "ZipCode": "36005",
    "Id": "01H98F4FRMRP19DYC3YNE43R69",
    "Name": "Edgetag",
    "Location": { "Latitude": 42.4423768, "Longitude": -8.6463086 },
    "Address": {
      "Street": "83 Burning Wood Road",
      "Ward": "Ward 4",
      "City": "Pontevedra",
      "Province": "Galicia"
    },
    "Status": 1
  },
  {
    "ZipCode": "09700-000",
    "Id": "01H98F4FRP2NY1RJQTXF2SPBVQ",
    "Name": "Meedoo",
    "Location": { "Latitude": -23.6898429, "Longitude": -46.5648481 },
    "Address": {
      "Street": "21 Hollow Ridge Crossing",
      "Ward": "Ward 5",
      "City": "São Bernardo do Campo"
    },
    "Status": 1
  },
  {
    "ZipCode": "671 07",
    "Id": "01H98F4FRRS5W9BS1HPZRJ51ZV",
    "Name": "Podcat",
    "Location": { "Latitude": 48.9410561, "Longitude": 15.6896923 },
    "Address": {
      "Street": "551 Longview Park",
      "Ward": "Ward 3",
      "City": "Vysočany",
      "ZipCode": "8424"
    },
    "Status": 1
  },
  {
    "ZipCode": "41703",
    "Id": "01H98F4FRSN22G31MH1R8ZMFJ7",
    "Name": "Eayo",
    "Location": { "Latitude": 37.3100775, "Longitude": -5.9647536 },
    "Address": {
      "Street": "6648 Norway Maple Plaza",
      "Ward": "Ward 4",
      "City": "Dos Hermanas",
      "Province": "Andalucia",
      "ZipCode": "2380-159"
    },
    "Status": 1
  },
  {
    "ZipCode": "5105",
    "Id": "01H98F4FRWB7APG9342ZCTYHEZ",
    "Name": "Eimbee",
    "Location": { "Latitude": 14.7793575, "Longitude": 121.0489884 },
    "Address": {
      "Street": "294 Logan Parkway",
      "Ward": "Trường Thạnh",
      "City": "Bagombong",
      "ZipCode": "13460-000"
    },
    "Status": 1
  },
  {
    "ZipCode": "98104",
    "Id": "01H98F4FRXK0HA8EC1H34YCPX6",
    "Name": "Tagpad",
    "Location": { "Latitude": 47.6015566, "Longitude": -122.3323351 },
    "Address": {
      "Street": "62 Riverside Park",
      "Ward": "Ward 5",
      "City": "Seattle",
      "Province": "Washington",
      "ZipCode": "58928-000"
    },
    "Status": 0
  },
  {
    "ZipCode": "9505",
    "Id": "01H98F4FS3W7P8C5Q4MP1SYBM2",
    "Name": "Rhynyx",
    "Location": { "Latitude": 15.04538, "Longitude": 120.671684 },
    "Address": {
      "Street": "21 Cordelia Place",
      "Ward": "Ward 2",
      "City": "Kabalen"
    },
    "Status": 1
  },
  {
    "ZipCode": "40612",
    "Id": "01H98F4FS46T8EYZ28PS8W0SE9",
    "Name": "Gigabox",
    "Location": { "Latitude": 3.0100681, "Longitude": 101.5326734 },
    "Address": {
      "Street": "77902 Bonner Court",
      "Ward": "Ward 2",
      "City": "Shah Alam",
      "Province": "Selangor"
    },
    "Status": 0
  },
  {
    "ZipCode": "10508",
    "Id": "01H98F4FS4J46EQRK85ZG0CG7F",
    "Name": "Twiyo",
    "Location": { "Latitude": 19.309169, "Longitude": -70.6977162 },
    "Address": {
      "Street": "3682 Pierstorff Plaza",
      "Ward": "Ward 5",
      "City": "Baitoa"
    },
    "Status": 0
  },
  {
    "ZipCode": "51950",
    "Id": "01H98F4FS5XANHJBSTH1KK1M2Y",
    "Name": "Dynabox",
    "Location": { "Latitude": 19.782027, "Longitude": -99.0598732 },
    "Address": {
      "Street": "873 Iowa Road",
      "Ward": "Ward 3",
      "City": "San Sebastian",
      "Province": "Mexico"
    },
    "Status": 0
  },
  {
    "ZipCode": "4332",
    "Id": "01H98F4FS7C11DPXB3NT5ZSD25",
    "Name": "Twitternation",
    "Location": { "Latitude": 15.5518829, "Longitude": 120.7822013 },
    "Address": {
      "Street": "25 Elka Alley",
      "Ward": "Ward 5",
      "City": "San Casimiro"
    },
    "Status": 0
  },
  {
    "ZipCode": "641 47",
    "Id": "01H98F4FS866T60ZX2W860QM2V",
    "Name": "Feedfish",
    "Location": { "Latitude": 59.0110968, "Longitude": 16.2239747 },
    "Address": {
      "Street": "00274 Porter Place",
      "Ward": "Trường Thạnh",
      "City": "Katrineholm",
      "Province": "Södermanland"
    },
    "Status": 1
  },
  {
    "ZipCode": "409-3841",
    "Id": "01H98F4FSBFN260AXK1E8JWN4M",
    "Name": "Gabtype",
    "Location": { "Latitude": 35.649152, "Longitude": 138.5884549 },
    "Address": {
      "Street": "51 Gerald Circle",
      "Ward": "Ward 5",
      "City": "Kōfu-shi",
      "ZipCode": "5430-236"
    },
    "Status": 1
  },
  {
    "ZipCode": "4600-596",
    "Id": "01H98F4FSFHSE2Y545FKKYHP9Z",
    "Name": "Oyoyo",
    "Location": { "Latitude": 41.2499754, "Longitude": -7.9522855 },
    "Address": {
      "Street": "17 Holy Cross Lane",
      "Ward": "Trường Thạnh",
      "City": "Eido",
      "Province": "Porto"
    },
    "Status": 1
  },
  {
    "ZipCode": "95833",
    "Id": "01H98F4FSGZ1QBPHMECV6FM7BM",
    "Name": "Plajo",
    "Location": { "Latitude": 38.6198298, "Longitude": -121.5198716 },
    "Address": {
      "Street": "68039 Dorton Parkway",
      "Ward": "Trường Thạnh",
      "City": "Sacramento",
      "Province": "California"
    },
    "Status": 0
  },
  {
    "ZipCode": "641500",
    "Id": "01H98F4FSKAMQSJWEQQFYEPZB5",
    "Name": "Fliptune",
    "Location": { "Latitude": 55.2708406, "Longitude": 66.4858701 },
    "Address": {
      "Street": "01779 Rutledge Hill",
      "Ward": "Ward 5",
      "City": "Lebyazh’ye"
    },
    "Status": 0
  },
  {
    "ZipCode": "31110",
    "Id": "01H98F4FSNFVMWG6MTTXF17P1P",
    "Name": "Brightdog",
    "Location": { "Latitude": 14.6316265, "Longitude": 102.7594847 },
    "Address": {
      "Street": "692 Golden Leaf Alley",
      "Ward": "Ward 2",
      "City": "Nakhon Ratchasima",
      "ZipCode": "35600-000"
    },
    "Status": 0
  },
  {
    "ZipCode": "39180",
    "Id": "01H98F4FSQFXKZ1EX5WZY4Y38N",
    "Name": "Jaxworks",
    "Location": { "Latitude": 31.4867981, "Longitude": 73.8207154 },
    "Address": {
      "Street": "414 New Castle Avenue",
      "Ward": "Ward 5",
      "City": "Warburton"
    },
    "Status": 1
  },
  {
    "ZipCode": "301 10",
    "Id": "01H98F4FSRMC5ADVMQNHTJ411G",
    "Name": "Meevee",
    "Location": { "Latitude": 56.6810923, "Longitude": 12.8148182 },
    "Address": {
      "Street": "0874 Glendale Terrace",
      "Ward": "Ward 5",
      "City": "Halmstad",
      "Province": "Halland",
      "ZipCode": "4211"
    },
    "Status": 0
  },
  {
    "ZipCode": "271 37",
    "Id": "01H98F4FSS7FRTGXSSE3W38CZ4",
    "Name": "Ntags",
    "Location": { "Latitude": 55.4426515, "Longitude": 13.8117207 },
    "Address": {
      "Street": "2 Raven Road",
      "Ward": "Ward 4",
      "City": "Ystad",
      "Province": "Skåne",
      "ZipCode": "397474"
    },
    "Status": 1
  },
  {
    "ZipCode": "10045",
    "Id": "01H98F4FSWSNBAHHJD12C8KY1H",
    "Name": "Izio",
    "Location": { "Latitude": 40.708873, "Longitude": -74.0093553 },
    "Address": {
      "Street": "6378 Eggendart Point",
      "Ward": "Trường Thạnh",
      "City": "New York City",
      "Province": "New York",
      "ZipCode": "2170"
    },
    "Status": 0
  },
  {
    "ZipCode": "3119",
    "Id": "01H98F4FSX10N23MJD6ZS6GQY6",
    "Name": "Zoomdog",
    "Location": { "Latitude": 15.5168467, "Longitude": 120.6069565 },
    "Address": { "Street": "92 Grim Road", "Ward": "Ward 3", "City": "Tariji" },
    "Status": 0
  },
  {
    "ZipCode": "442443",
    "Id": "01H98F4FSYNJY1QW98F2J08E5M",
    "Name": "Blogspan",
    "Location": { "Latitude": 52.7112627, "Longitude": 45.4271291 },
    "Address": {
      "Street": "6168 Brown Street",
      "Ward": "Ward 5",
      "City": "Verkhozim"
    },
    "Status": 0
  },
  {
    "ZipCode": "302025",
    "Id": "01H98F4FT3R0WSN0XBB5WF767N",
    "Name": "Oba",
    "Location": { "Latitude": 55.775282, "Longitude": 37.61479 },
    "Address": {
      "Street": "0 Shopko Way",
      "Ward": "Ward 4",
      "City": "Yaroslavl",
      "ZipCode": "4619"
    },
    "Status": 0
  },
  {
    "ZipCode": "N3",
    "Id": "01H98F4FT4J41FXYYBYNAYRJ74",
    "Name": "Chatterbridge",
    "Location": { "Latitude": 51.598282, "Longitude": -0.198414 },
    "Address": {
      "Street": "8 Sheridan Crossing",
      "Ward": "Trường Thạnh",
      "City": "Church End",
      "Province": "England"
    },
    "Status": 0
  },
  {
    "ZipCode": "05-850",
    "Id": "01H98F4FTAFP25H8479CM6VJBW",
    "Name": "Trupe",
    "Location": { "Latitude": 52.1951226, "Longitude": 20.8837885 },
    "Address": {
      "Street": "218 Tony Plaza",
      "Ward": "Trường Thạnh",
      "City": "Ursus",
      "ZipCode": "H1V"
    },
    "Status": 1
  },
  {
    "ZipCode": "62652",
    "Id": "01H98F4FTBWKJ9V1R8B2QZNF1C",
    "Name": "Voonder",
    "Location": { "Latitude": 2.921263, "Longitude": 101.6858965 },
    "Address": {
      "Street": "82738 Village Parkway",
      "Ward": "Trường Thạnh",
      "City": "Putrajaya",
      "Province": "Putrajaya",
      "ZipCode": "32253"
    },
    "Status": 0
  },
  {
    "ZipCode": "186000",
    "Id": "01H98F4FTCK7STFGKQRTWY284D",
    "Name": "Meetz",
    "Location": { "Latitude": 60.9801837, "Longitude": 32.9723968 },
    "Address": {
      "Street": "767 Delladonna Center",
      "Ward": "Ward 4",
      "City": "Olonets",
      "ZipCode": "16201"
    },
    "Status": 0
  },
  {
    "ZipCode": "32-327",
    "Id": "01H98F4FTH1SWBBGSWXD1KN6VN",
    "Name": "Topicware",
    "Location": { "Latitude": 50.186053, "Longitude": 20.598197 },
    "Address": {
      "Street": "5670 Oak Valley Lane",
      "Ward": "Ward 3",
      "City": "Filipowice"
    },
    "Status": 0
  },
  {
    "ZipCode": "839-1344",
    "Id": "01H98F4FTJDH59W84PA18BM86A",
    "Name": "Thoughtbeat",
    "Location": { "Latitude": 33.3437146, "Longitude": 130.6838866 },
    "Address": {
      "Street": "26026 Pepper Wood Avenue",
      "Ward": "Ward 4",
      "City": "Tanushimarumachi-toyoki",
      "ZipCode": "906-0301"
    },
    "Status": 0
  },
  {
    "ZipCode": "309-1127",
    "Id": "01H98F4FTMECXPDTNJ9T1DM2GN",
    "Name": "Zoombox",
    "Location": { "Latitude": 36.304147, "Longitude": 139.978334 },
    "Address": {
      "Street": "85 Veith Parkway",
      "Ward": "Ward 5",
      "City": "Shimodate",
      "ZipCode": "K1Y"
    },
    "Status": 0
  },
  {
    "ZipCode": "682027",
    "Id": "01H98F4FTPC6Q6QEXVG7X07Z6C",
    "Name": "Meevee",
    "Location": { "Latitude": 6.6763591, "Longitude": -72.7628653 },
    "Address": {
      "Street": "0801 Carioca Road",
      "Ward": "Ward 2",
      "City": "Málaga",
      "ZipCode": "462 73"
    },
    "Status": 1
  },
  {
    "ZipCode": "49140-000",
    "Id": "01H98F4FTQQWMTAZW2N2549ZA6",
    "Name": "Yadel",
    "Location": { "Latitude": -10.8512419, "Longitude": -36.970226 },
    "Address": {
      "Street": "5693 Cardinal Center",
      "Ward": "Ward 5",
      "City": "Barra dos Coqueiros"
    },
    "Status": 0
  },
  {
    "ZipCode": "48930",
    "Id": "01H98F4FTT248AQA0476T3K8S5",
    "Name": "Thoughtworks",
    "Location": { "Latitude": 42.7327231, "Longitude": -84.5575089 },
    "Address": {
      "Street": "4357 Becker Street",
      "Ward": "Ward 3",
      "City": "Lansing",
      "Province": "Michigan"
    },
    "Status": 0
  },
  {
    "ZipCode": "7312",
    "Id": "01H98F4FTZP6BN508X6S9YJYCG",
    "Name": "Thoughtbeat",
    "Location": { "Latitude": -33.1519145, "Longitude": 18.6642088 },
    "Address": {
      "Street": "2 Chive Way",
      "Ward": "Ward 3",
      "City": "Moorreesburg"
    },
    "Status": 0
  },
  {
    "ZipCode": "95000-000",
    "Id": "01H98F4FV0TRT8JASDR47WCCM5",
    "Name": "Skidoo",
    "Location": { "Latitude": -29.1556093, "Longitude": -51.1787796 },
    "Address": {
      "Street": "836 Almo Pass",
      "Ward": "Ward 5",
      "City": "Caxias do Sul",
      "ZipCode": "3505"
    },
    "Status": 0
  },
  {
    "ZipCode": "34-432",
    "Id": "01H98F4FV1VNWE2R36TSZ4C17F",
    "Name": "Mynte",
    "Location": { "Latitude": 49.4705944, "Longitude": 20.1323725 },
    "Address": {
      "Street": "58143 Carioca Plaza",
      "Ward": "Trường Thạnh",
      "City": "Łopuszna",
      "ZipCode": "276-0017"
    },
    "Status": 1
  },
  {
    "ZipCode": "671 07",
    "Id": "01H98F4FV5SRB5A2YXH2BDVZMH",
    "Name": "Blogspan",
    "Location": { "Latitude": 48.9410561, "Longitude": 15.6896923 },
    "Address": {
      "Street": "4135 Kipling Hill",
      "Ward": "Trường Thạnh",
      "City": "Vysočany",
      "ZipCode": "083028"
    },
    "Status": 0
  },
  {
    "ZipCode": "94224 CEDEX",
    "Id": "01H98F4FV74RZGWDSZ1R763WFS",
    "Name": "Ooba",
    "Location": { "Latitude": 48.8218211, "Longitude": 2.3999815 },
    "Address": {
      "Street": "205 Eagan Way",
      "Ward": "Ward 4",
      "City": "Charenton-le-Pont",
      "Province": "Île-de-France"
    },
    "Status": 0
  },
  {
    "ZipCode": "45473",
    "Id": "01H98F4FVE8CGEM9XJNSH3C4X2",
    "Name": "Ntag",
    "Location": { "Latitude": 51.441874, "Longitude": 6.886548 },
    "Address": {
      "Street": "79 Bultman Circle",
      "Ward": "Ward 5",
      "City": "Mülheim an der Ruhr",
      "Province": "Nordrhein-Westfalen"
    },
    "Status": 1
  },
  {
    "ZipCode": "10500",
    "Id": "01H98F4FVFFFCFDDWZNV67QBPZ",
    "Name": "Zooveo",
    "Location": { "Latitude": 13.7246078, "Longitude": 100.5148471 },
    "Address": {
      "Street": "37299 Lillian Pass",
      "Ward": "Ward 5",
      "City": "Bang Rak",
      "ZipCode": "4805-081"
    },
    "Status": 1
  },
  {
    "ZipCode": "10140",
    "Id": "01H98F4FVGDXAAW2PW5STZB0SM",
    "Name": "Ailane",
    "Location": { "Latitude": 13.6332855, "Longitude": 100.4958678 },
    "Address": {
      "Street": "7 Harbort Hill",
      "Ward": "Ward 5",
      "City": "Thung Khru",
      "ZipCode": "4343"
    },
    "Status": 1
  },
  {
    "ZipCode": "18500-000",
    "Id": "01H98F4FVP4K0X987RG7RG6FBH",
    "Name": "Npath",
    "Location": { "Latitude": -23.0510503, "Longitude": -47.838004 },
    "Address": {
      "Street": "88 Norway Maple Lane",
      "Ward": "Ward 3",
      "City": "Laranjal Paulista"
    },
    "Status": 0
  },
  {
    "ZipCode": "0188",
    "Id": "01H98F4FVRPW0FA3V9VRMN62RE",
    "Name": "Tagcat",
    "Location": { "Latitude": 59.9128876, "Longitude": 10.7612521 },
    "Address": {
      "Street": "2943 Mesta Point",
      "Ward": "Ward 3",
      "City": "Oslo",
      "Province": "Oslo",
      "ZipCode": "3037"
    },
    "Status": 1
  },
  {
    "ZipCode": "64280-000",
    "Id": "01H98F4FVSF0EAK4S98Z0WB9C7",
    "Name": "DabZ",
    "Location": { "Latitude": -4.8220831, "Longitude": -42.1644994 },
    "Address": {
      "Street": "27 Thompson Hill",
      "Ward": "Ward 5",
      "City": "Campo Maior"
    },
    "Status": 1
  },
  {
    "ZipCode": "64500-000",
    "Id": "01H98F4FVXK078ZTEXWBEH4J8N",
    "Name": "Avamba",
    "Location": { "Latitude": -7.0386232, "Longitude": -42.1572702 },
    "Address": {
      "Street": "71 Summerview Point",
      "Ward": "Ward 5",
      "City": "Oeiras",
      "ZipCode": "63180"
    },
    "Status": 1
  },
  {
    "ZipCode": "83077 CEDEX 9",
    "Id": "01H98F4FW1GDEZXB03MDDBZ52C",
    "Name": "Photobug",
    "Location": { "Latitude": 43.1283145, "Longitude": 5.9294606 },
    "Address": {
      "Street": "250 Bultman Crossing",
      "Ward": "Ward 5",
      "City": "Toulon",
      "Province": "Provence-Alpes-Côte d'Azur",
      "ZipCode": "62-511"
    },
    "Status": 1
  },
  {
    "ZipCode": "2408",
    "Id": "01H98F4FW2HW0SEBHT7CTGM1PZ",
    "Name": "Zazio",
    "Location": { "Latitude": 16.109324, "Longitude": 119.8289909 },
    "Address": {
      "Street": "42391 Ridge Oak Avenue",
      "Ward": "Ward 2",
      "City": "Bangan-Oda"
    },
    "Status": 1
  },
  {
    "ZipCode": "4419",
    "Id": "01H98F4FW4QX5WR44FV1MSP3X4",
    "Name": "Kanoodle",
    "Location": { "Latitude": 14.5941382, "Longitude": 121.0671868 },
    "Address": {
      "Street": "4571 Badeau Circle",
      "Ward": "Ward 5",
      "City": "Ocampo"
    },
    "Status": 1
  },
  {
    "ZipCode": "46-220",
    "Id": "01H98F4FW73DMQF0T7WC8T718T",
    "Name": "Minyx",
    "Location": { "Latitude": 51.11327, "Longitude": 18.21114 },
    "Address": {
      "Street": "95448 South Parkway",
      "Ward": "Ward 4",
      "City": "Byczyna"
    },
    "Status": 1
  },
  {
    "ZipCode": "4650-304",
    "Id": "01H98F4FW8ZEJVQ4DQHJP77SAV",
    "Name": "Vidoo",
    "Location": { "Latitude": 41.3905327, "Longitude": -8.3219318 },
    "Address": {
      "Street": "8973 Porter Crossing",
      "Ward": "Ward 3",
      "City": "Belos Ares",
      "Province": "Porto"
    },
    "Status": 1
  },
  {
    "ZipCode": "368628",
    "Id": "01H98F4FWA3YY86YJGVX0YCEEK",
    "Name": "Realfire",
    "Location": { "Latitude": 42.1662941, "Longitude": 48.1164779 },
    "Address": {
      "Street": "2 Blaine Road",
      "Ward": "Trường Thạnh",
      "City": "Mamedkala"
    },
    "Status": 1
  },
  {
    "ZipCode": "452815",
    "Id": "01H98F4FWBYRYN88GXTQW8087J",
    "Name": "Devpulse",
    "Location": { "Latitude": 56.0887469, "Longitude": 55.3476176 },
    "Address": {
      "Street": "4313 Longview Court",
      "Ward": "Trường Thạnh",
      "City": "Mesyagutovo",
      "ZipCode": "36-043"
    },
    "Status": 1
  },
  {
    "ZipCode": "2435-454",
    "Id": "01H98F4FWF6W7JMCE94YAV3N5F",
    "Name": "Gigaclub",
    "Location": { "Latitude": 39.7075592, "Longitude": -8.6041746 },
    "Address": {
      "Street": "2199 Grover Point",
      "Ward": "Trường Thạnh",
      "City": "Olival",
      "Province": "Santarém"
    },
    "Status": 0
  },
  {
    "ZipCode": "312 36",
    "Id": "01H98F4FWG8RA67TH1SQ4A1SDC",
    "Name": "Gigazoom",
    "Location": { "Latitude": 56.5006765, "Longitude": 13.0587651 },
    "Address": {
      "Street": "7233 Forest Dale Lane",
      "Ward": "Trường Thạnh",
      "City": "Laholm",
      "Province": "Halland",
      "ZipCode": "97-352"
    },
    "Status": 1
  },
  {
    "ZipCode": "243418",
    "Id": "01H98F4FWJ9K96AVQZCKG9XW8Y",
    "Name": "Eire",
    "Location": { "Latitude": 52.8595744, "Longitude": 33.3645241 },
    "Address": {
      "Street": "282 Luster Parkway",
      "Ward": "Ward 5",
      "City": "Pochep",
      "ZipCode": "54046 CEDEX"
    },
    "Status": 0
  },