[
  {
    "Id": "01H980MA0J6P4K2YP2RH1HJ8YV",
    "Name": "CJ Warehousing - Thủ Đức",
    "ZipCode": "700000",
    "Location": {
      "Latitude": 10.8274,
      "Longitude": 106.8117
    },
    "Address": {
      "Street": "63 Lò Lu",
      "Ward": "Trường Thạnh",
      "City": "Thủ Đức",
      "Province": "Hồ Chí Minh",
      "ZipCode": "71354"
    },
    "Status": 0
  },
  {
    "Id": "01H980MA0JGWX7H0MGZ3TQVW39",
    "Name": "Kho Biên Hòa",
    "ZipCode": "76000",
    "Location": {
      "Latitude": 10.9321,
      "Longitude": 106.967
    },
    "Address": {
      "Street": "Võ Nguyên Giáp",
      "Ward": "Bình Minh",
      "City": "Trảng Bom",
      "Province": "Đồng Nai",
      "ZipCode": "76300"
    },
    "Status": 0
  },
  {
    "ZipCode": "963-5343",
    "Id": "01H98F4F5Q9AM59EG7EJFB2ED4",
    "Name": "Browseblab",
    "Location": { "Latitude": 36.905485, "Longitude": 140.4069331 },
    "Address": {
      "Street": "52 Killdeer Hill",
      "Ward": "Ward 4",
      "City": "Ueda",
      "ZipCode": "533 50"
    },
    "Status": 1
  },
  {
    "ZipCode": "273 02",
    "Id": "01H98F4F5S814XX1H3T36YRJFF",
    "Name": "Flashpoint",
    "Location": { "Latitude": 50.1380318, "Longitude": 13.9911619 },
    "Address": {
      "Street": "3 Swallow Terrace",
      "Ward": "Trường Thạnh",
      "City": "Tuchlovice",
      "ZipCode": "4990-690"
    },
    "Status": 0
  },
  {
    "ZipCode": "36-212",
    "Id": "01H98F4F5TXGEW8BCYQHZR0E79",
    "Name": "Quimm",
    "Location": { "Latitude": 49.6616099, "Longitude": 22.004725 },
    "Address": {
      "Street": "50301 Huxley Drive",
      "Ward": "Ward 2",
      "City": "Turze Pole"
    },
    "Status": 0
  },
  {
    "ZipCode": "26-050",
    "Id": "01H98F4F5WEHC30R98ASVBS503",
    "Name": "Skinix",
    "Location": { "Latitude": 50.9872632, "Longitude": 20.6630795 },
    "Address": {
      "Street": "055 Sommers Circle",
      "Ward": "Ward 2",
      "City": "Kaniów",
      "ZipCode": "30414"
    },
    "Status": 0
  },
  {
    "ZipCode": "5417",
    "Id": "01H98F4F5Y3PENEJSST0ZSV238",
    "Name": "Quatz",
    "Location": { "Latitude": 12.5640276, "Longitude": 123.7304111 },
    "Address": {
      "Street": "01 Cascade Way",
      "Ward": "Trường Thạnh",
      "City": "San Jacinto"
    },
    "Status": 0
  },
  {
    "ZipCode": "45440",
    "Id": "01H98F4F5ZG2FRMPQ39F5KHVVZ",
    "Name": "Viva",
    "Location": { "Latitude": 39.6720868, "Longitude": -84.0960056 },
    "Address": {
      "Street": "7 Talisman Hill",
      "Ward": "Ward 3",
      "City": "Dayton",
      "Province": "Ohio",
      "ZipCode": "11803"
    },
    "Status": 1
  },
  {
    "ZipCode": "735037",
    "Id": "01H98F4F60QVNFNG7PG8NJTYWA",
    "Name": "Feedfire",
    "Location": { "Latitude": 3.799339, "Longitude": -75.194595 },
    "Address": {
      "Street": "4972 Blaine Parkway",
      "Ward": "Ward 5",
      "City": "Coyaima",
      "ZipCode": "4600"
    },
    "Status": 0
  },
  {
    "ZipCode": "5039",
    "Id": "01H98F4F61JAMF0FNDNE2WTR95",
    "Name": "Fatz",
    "Location": { "Latitude": 14.5697429, "Longitude": 121.0190818 },
    "Address": {
      "Street": "4 Village Way",
      "Ward": "Ward 5",
      "City": "San Rafael",
      "ZipCode": "75800-000"
    },
    "Status": 1
  },
  {
    "ZipCode": "10802",
    "Id": "01H98F4F620E6ZGJR14CDF5KTF",
    "Name": "Realbuzz",
    "Location": { "Latitude": 9.7016493, "Longitude": -84.1005807 },
    "Address": {
      "Street": "63256 Messerschmidt Way",
      "Ward": "Ward 4",
      "City": "San Francisco"
    },
    "Status": 1
  },
  {
    "ZipCode": "413 11",
    "Id": "01H98F4F63VDV76BDN95Z904GR",
    "Name": "Wordify",
    "Location": { "Latitude": 57.6900919, "Longitude": 11.94588 },
    "Address": {
      "Street": "4 Iowa Alley",
      "Ward": "Ward 2",
      "City": "Göteborg",
      "Province": "Västra Götaland"
    },
    "Status": 1
  },
  {
    "ZipCode": "14620-000",
    "Id": "01H98F4F68REJ98RQY6ZNMBJ9Y",
    "Name": "Brightbean",
    "Location": { "Latitude": -20.7175404, "Longitude": -47.8858187 },
    "Address": {
      "Street": "51647 Ryan Center",
      "Ward": "Ward 3",
      "City": "Orlândia",
      "ZipCode": "057418"
    },
    "Status": 1
  },
  {
    "ZipCode": "D04",
    "Id": "01H98F4F6944NAEYDYV9G1W0FE",
    "Name": "Voonte",
    "Location": { "Latitude": 52.176031, "Longitude": -6.5899765 },
    "Address": {
      "Street": "7789 Pond Crossing",
      "Ward": "Ward 2",
      "City": "Balally",
      "ZipCode": "360 01"
    },
    "Status": 0
  },
  {
    "ZipCode": "8216",
    "Id": "01H98F4F6ABV4F5M2XC65B2DE0",
    "Name": "Feednation",
    "Location": { "Latitude": 42.5909476, "Longitude": 22.9834356 },
    "Address": {
      "Street": "51 Utah Drive",
      "Ward": "Trường Thạnh",
      "City": "Aheloy"
    },
    "Status": 0
  },
  {
    "ZipCode": "10304",
    "Id": "01H98F4F6E5P71Z6D87PQ36Z1P",
    "Name": "Fivespan",
    "Location": { "Latitude": 9.6588232, "Longitude": -84.0995948 },
    "Address": {
      "Street": "3 Lunder Street",
      "Ward": "Ward 3",
      "City": "San Rafael Arriba",
      "ZipCode": "242 35"
    },
    "Status": 0
  },
  {
    "ZipCode": "593 01",
    "Id": "01H98F4F6FJ1ECX78NEXSS1BDP",
    "Name": "Jabbersphere",
    "Location": { "Latitude": 49.5474598, "Longitude": 16.2620907 },
    "Address": {
      "Street": "7840 Schurz Pass",
      "Ward": "Trường Thạnh",
      "City": "Ždánice"
    },
    "Status": 0
  },
  {
    "ZipCode": "418077",
    "Id": "01H98F4F6HQWSQRDKJKS2WWA7M",
    "Name": "Tavu",
    "Location": { "Latitude": 1.879826, "Longitude": -76.270749 },
    "Address": {
      "Street": "1359 Pawling Pass",
      "Ward": "Trường Thạnh",
      "City": "San Agustín"
    },
    "Status": 1
  },
  {
    "ZipCode": "696 66",
    "Id": "01H98F4F6JXFZ8ZB63TQPSKX0H",
    "Name": "Devcast",
    "Location": { "Latitude": 48.878715, "Longitude": 17.2335614 },
    "Address": {
      "Street": "0171 Golden Leaf Pass",
      "Ward": "Ward 2",
      "City": "Sudoměřice",
      "ZipCode": "50000"
    },
    "Status": 0
  },
  {
    "ZipCode": "175419",
    "Id": "01H98F4F6K0VRK51GE9JHBZ4Q7",
    "Name": "Quire",
    "Location": { "Latitude": 57.9788789, "Longitude": 33.243615 },
    "Address": {
      "Street": "7766 Eagan Place",
      "Ward": "Ward 5",
      "City": "Valday"
    },
    "Status": 0
  },
  {
    "ZipCode": "57820-000",
    "Id": "01H98F4F6M6DRA43474SWV8C2S",
    "Name": "Flashspan",
    "Location": { "Latitude": -9.309531, "Longitude": -35.9420041 },
    "Address": {
      "Street": "50495 Porter Drive",
      "Ward": "Ward 5",
      "City": "Murici"
    },
    "Status": 0
  },
  {
    "ZipCode": "8006",
    "Id": "01H98F4F6N3FW60V4608SNRH80",
    "Name": "Vinder",
    "Location": { "Latitude": 14.7464846, "Longitude": 121.0764017 },
    "Address": {
      "Street": "4 Pankratz Park",
      "Ward": "Trường Thạnh",
      "City": "Hagonoy",
      "ZipCode": "11503"
    },
    "Status": 0
  },
  {
    "ZipCode": "08-440",
    "Id": "01H98F4F6QXBEQ4DYC47BF7PFD",
    "Name": "Fliptune",
    "Location": { "Latitude": 51.95914, "Longitude": 21.53057 },
    "Address": {
      "Street": "24 Becker Pass",
      "Ward": "Trường Thạnh",
      "City": "Pilawa",
      "ZipCode": "34-483"
    },
    "Status": 0
  },
  {
    "ZipCode": "69260-000",
    "Id": "01H98F4F6TGGBT6N9MA1B4JNYB",
    "Name": "Photojam",
    "Location": { "Latitude": -6.3019793, "Longitude": -60.0259466 },
    "Address": {
      "Street": "20 Katie Trail",
      "Ward": "Ward 5",
      "City": "Novo Aripuanã",
      "ZipCode": "N41"
    },
    "Status": 0
  },
  {
    "ZipCode": "929-0341",
    "Id": "01H98F4F6WBEBG4RHXTYKXRR7R",
    "Name": "Cogidoo",
    "Location": { "Latitude": 36.6669437, "Longitude": 136.73393 },
    "Address": {
      "Street": "059 Manley Trail",
      "Ward": "Ward 4",
      "City": "Yokohama",
      "ZipCode": "384 51"
    },
    "Status": 0
  },
  {
    "ZipCode": "2005",
    "Id": "01H98F4F702DREHT5KAH5SW653",
    "Name": "Cogibox",
    "Location": { "Latitude": 16.6969748, "Longitude": 121.5594587 },
    "Address": {
      "Street": "7 Melvin Road",
      "Ward": "Trường Thạnh",
      "City": "Calangain"
    },
    "Status": 1
  },
  {
    "ZipCode": "98124",
    "Id": "01H98F4F710MAMTDZ9EFQHZEG9",
    "Name": "Abata",
    "Location": { "Latitude": 38.1724824, "Longitude": 15.5445064 },
    "Address": {
      "Street": "24415 Boyd Avenue",
      "Ward": "Ward 2",
      "City": "Messina",
      "Province": "Sicilia"
    },
    "Status": 0
  },
  {
    "ZipCode": "98109",
    "Id": "01H98F4F72Z36J3A3E25SQ66HD",
    "Name": "Devpoint",
    "Location": { "Latitude": 47.6288591, "Longitude": -122.3456919 },
    "Address": {
      "Street": "69 Coolidge Road",
      "Ward": "Ward 4",
      "City": "Seattle",
      "Province": "Washington"
    },
    "Status": 1
  },
  {
    "ZipCode": "11204",
    "Id": "01H98F4F731P60KXKE7BXJZNR2",
    "Name": "Bluezoom",
    "Location": { "Latitude": 9.9889044, "Longitude": -84.2364028 },
    "Address": {
      "Street": "82149 Lindbergh Parkway",
      "Ward": "Ward 5",
      "City": "Tejar"
    },
    "Status": 1
  },
  {
    "ZipCode": "40140",
    "Id": "01H98F4F74N5K034E1CTJ5VBKJ",
    "Name": "Trunyx",
    "Location": { "Latitude": 13.81967, "Longitude": 100.0601382 },
    "Address": {
      "Street": "63956 Little Fleur Pass",
      "Ward": "Ward 5",
      "City": "Nakhon Pathom"
    },
    "Status": 0
  },
  {
    "ZipCode": "69902 CEDEX 20",
    "Id": "01H98F4F750VWZM58BF643QZSX",
    "Name": "Yodel",
    "Location": { "Latitude": 43.0429124, "Longitude": 1.9038837 },
    "Address": {
      "Street": "5 Donald Pass",
      "Ward": "Ward 5",
      "City": "Lyon",
      "Province": "Rhône-Alpes",
      "ZipCode": "78151"
    },
    "Status": 1
  },
  {
    "ZipCode": "3731",
    "Id": "01H98F4F76BRYVRRDAEF3KET4R",
    "Name": "Kaymbo",
    "Location": { "Latitude": 23.6755934, "Longitude": 88.980176 },
    "Address": {
      "Street": "4 Coleman Court",
      "Ward": "Ward 5",
      "City": "Nowlamary",
      "ZipCode": "1408"
    },
    "Status": 1
  },
  {
    "ZipCode": "44700-000",
    "Id": "01H98F4F7BC846GMT3MXSJ49WF",
    "Name": "Brightdog",
    "Location": { "Latitude": -11.1816506, "Longitude": -40.5120603 },
    "Address": {
      "Street": "7547 Messerschmidt Street",
      "Ward": "Ward 2",
      "City": "Jacobina",
      "ZipCode": "67-120"
    },
    "Status": 1
  },
  {
    "ZipCode": "987-0058",
    "Id": "01H98F4F7EEPVHBGWMSGP2P1VX",
    "Name": "Jatri",
    "Location": { "Latitude": 38.5261686, "Longitude": 141.0953438 },
    "Address": {
      "Street": "7 Norway Maple Hill",
      "Ward": "Ward 4",
      "City": "Shiogama",
      "ZipCode": "10304"
    },
    "Status": 1
  },
  {
    "ZipCode": "77386",
    "Id": "01H98F4F7GF34CJKX1SSDS1SYV",
    "Name": "Dabtype",
    "Location": { "Latitude": 30.1185635, "Longitude": -95.3730176 },
    "Address": {
      "Street": "262 Canary Parkway",
      "Ward": "Trường Thạnh",
      "City": "Spring",
      "Province": "Texas"
    },
    "Status": 1
  },
  {
    "ZipCode": "171543",
    "Id": "01H98F4F7HB5B0FHB2BNYZKFRR",
    "Name": "Fatz",
    "Location": { "Latitude": 56.7391033, "Longitude": 38.8533938 },
    "Address": {
      "Street": "345 Truax Hill",
      "Ward": "Ward 3",
      "City": "Pereslavl’-Zalesskiy"
    },
    "Status": 1
  },
  {
    "ZipCode": "762 91",
    "Id": "01H98F4F7JFK4KBAXWXC4YYME3",
    "Name": "Cogilith",
    "Location": { "Latitude": 59.7436995, "Longitude": 18.3601496 },
    "Address": {
      "Street": "737 Carey Drive",
      "Ward": "Ward 2",
      "City": "Rimbo",
      "Province": "Stockholm"
    },
    "Status": 0
  },
  {
    "ZipCode": "732 24",
    "Id": "01H98F4F7NE2J92NZY5H2BCBS2",
    "Name": "Kazio",
    "Location": { "Latitude": 57.7193237, "Longitude": 11.9120278 },
    "Address": {
      "Street": "71 Northridge Junction",
      "Ward": "Ward 2",
      "City": "Arboga",
      "Province": "Västmanland"
    },
    "Status": 0
  },
  {
    "ZipCode": "157460",
    "Id": "01H98F4F7PXR0CG0A5VK52WB4A",
    "Name": "Wordtune",
    "Location": { "Latitude": 57.8814317, "Longitude": 43.8050354 },
    "Address": {
      "Street": "80853 Swallow Center",
      "Ward": "Ward 3",
      "City": "Makar’yev",
      "ZipCode": "76821 CEDEX"
    },
    "Status": 0
  },
  {
    "ZipCode": "9869",
    "Id": "01H98F4F7Q4FDSCFF8FA8BZ366",
    "Name": "JumpXS",
    "Location": { "Latitude": -28.4836381, "Longitude": 28.8480284 },
    "Address": {
      "Street": "75 Prentice Park",
      "Ward": "Ward 4",
      "City": "Phuthaditjhaba"
    },
    "Status": 0
  },
  {
    "ZipCode": "6224",
    "Id": "01H98F4F7SJ8GA0JMM2CKF19BH",
    "Name": "Meevee",
    "Location": { "Latitude": 9.7846, "Longitude": 124.1745 },
    "Address": {
      "Street": "80 Morrow Center",
      "Ward": "Trường Thạnh",
      "City": "Nueva Vida Sur",
      "ZipCode": "12900-000"
    },
    "Status": 1
  },
  {
    "ZipCode": "692651",
    "Id": "01H98F4F7XDGRX5T4KRK9YXZ69",
    "Name": "Camimbo",
    "Location": { "Latitude": 60.008624, "Longitude": 30.412653 },
    "Address": {
      "Street": "13 Merchant Plaza",
      "Ward": "Ward 4",
      "City": "Grazhdanka",
      "ZipCode": "35076 CEDEX 9"
    },
    "Status": 0
  },
  {
    "ZipCode": "2630-224",
    "Id": "01H98F4F7ZPA2MS25KTTGXHAKE",
    "Name": "Topicblab",
    "Location": { "Latitude": 38.9908943, "Longitude": -9.0471651 },
    "Address": {
      "Street": "6232 Pepper Wood Park",
      "Ward": "Ward 2",
      "City": "Antas",
      "Province": "Lisboa"
    },
    "Status": 1
  },
  {
    "ZipCode": "95940-000",
    "Id": "01H98F4F818PX1BM30X4S0YQQ3",
    "Name": "Wordware",
    "Location": { "Latitude": -29.3652193, "Longitude": -51.9580164 },
    "Address": {
      "Street": "2494 Oak Center",
      "Ward": "Ward 3",
      "City": "Arroio do Meio",
      "ZipCode": "58207"
    },
    "Status": 1
  },
  {
    "ZipCode": "D13",
    "Id": "01H98F4F829HTDV2T1HEPC6RGQ",
    "Name": "Voolith",
    "Location": { "Latitude": 53.3895926, "Longitude": -6.1097188 },
    "Address": {
      "Street": "59791 Doe Crossing Pass",
      "Ward": "Ward 5",
      "City": "Sutton",
      "ZipCode": "27717"
    },
    "Status": 1
  },
  {
    "ZipCode": "216740",
    "Id": "01H98F4F84GPNT1Y0AR4TBDE6T",
    "Name": "Browsezoom",
    "Location": { "Latitude": 54.8675594, "Longitude": 31.3957567 },
    "Address": {
      "Street": "77428 Lien Place",
      "Ward": "Ward 2",
      "City": "Golynki",
      "ZipCode": "15640-000"
    },
    "Status": 0
  },
  {
    "ZipCode": "443 33",
    "Id": "01H98F4F86AXR6EFN4NB61YH0Z",
    "Name": "Skyble",
    "Location": { "Latitude": 57.7824551, "Longitude": 12.2632093 },
    "Address": {
      "Street": "75 Golf Course Place",
      "Ward": "Ward 4",
      "City": "Lerum",
      "Province": "Västra Götaland",
      "ZipCode": "98140"
    },
    "Status": 0
  },
  {
    "ZipCode": "36660-000",
    "Id": "01H98F4F8A31Q9K7TQ1TEFBN7A",
    "Name": "Topicshots",
    "Location": { "Latitude": -21.8833835, "Longitude": -42.6985095 },
    "Address": {
      "Street": "0296 7th Trail",
      "Ward": "Ward 3",
      "City": "Além Paraíba"
    },
    "Status": 0
  },
  {
    "ZipCode": "K8P",
    "Id": "01H98F4F8CS7RDTM5VFMEBMAXQ",
    "Name": "Jabbersphere",
    "Location": { "Latitude": 44.165829, "Longitude": -77.3956004 },
    "Address": {
      "Street": "320 Towne Road",
      "Ward": "Ward 2",
      "City": "Belleville",
      "Province": "Ontario"
    },
    "Status": 1
  },
  {
    "ZipCode": "L-8165",
    "Id": "01H98F4F8DEKYZT0R1T5EBG2EM",
    "Name": "InnoZ",
    "Location": { "Latitude": 49.6638448, "Longitude": 6.0872124 },
    "Address": {
      "Street": "81 Coolidge Hill",
      "Ward": "Ward 5",
      "City": "Bridel"
    },
    "Status": 0
  },
  {
    "ZipCode": "6807",
    "Id": "01H98F4F8HGS3FEBHEPZSKEAE2",
    "Name": "Pixonyx",
    "Location": { "Latitude": 14.5560877, "Longitude": 121.0155081 },
    "Address": {
      "Street": "21302 Sherman Trail",
      "Ward": "Ward 5",
      "City": "Salcedo",
      "ZipCode": "9404"
    },
    "Status": 0
  },
  {
    "ZipCode": "2453",
    "Id": "01H98F4F8KKAV631YKQ1ANS3WY",
    "Name": "Twiyo",
    "Location": { "Latitude": 42.5442603, "Longitude": 22.9616227 },
    "Address": {
      "Street": "762 Bluejay Way",
      "Ward": "Ward 3",
      "City": "Radomir",
      "ZipCode": "948-0212"
    },
    "Status": 1
  },
  {
    "ZipCode": "7737",
    "Id": "01H98F4F8NXT6F4ZQBX71NG6WE",
    "Name": "Wikizz",
    "Location": { "Latitude": 64.0128827, "Longitude": 11.496376 },
    "Address": {
      "Street": "12 Maple Wood Drive",
      "Ward": "Ward 4",
      "City": "Steinkjer",
      "Province": "Nord-Trondelag"
    },
    "Status": 1
  },
  {
    "ZipCode": "1209",
    "Id": "01H98F4F8P0ZFH5BNSRGWC1XXM",
    "Name": "Jabberstorm",
    "Location": { "Latitude": 46.2214936, "Longitude": 6.1238396 },
    "Address": {
      "Street": "63526 Declaration Court",
      "Ward": "Trường Thạnh",
      "City": "Genève",
      "Province": "Canton de Genève",
      "ZipCode": "3282"
    },
    "Status": 1
  },
  {
    "ZipCode": "4335",
    "Id": "01H98F4F8QGT5DRW5H75M7TJJH",
    "Name": "Wikido",
    "Location": { "Latitude": 16.0684136, "Longitude": 119.9874642 },
    "Address": {
      "Street": "7 Del Sol Lane",
      "Ward": "Ward 2",
      "City": "Linmansangan"
    },
    "Status": 1
  },
  {
    "ZipCode": "544529",
    "Id": "01H98F4F8WW0EDP4DG1HE7MM5D",
    "Name": "Fivebridge",
    "Location": { "Latitude": 7.539403, "Longitude": -72.77228 },
    "Address": {
      "Street": "91420 Dixon Crossing",
      "Ward": "Ward 5",
      "City": "Cucutilla",
      "ZipCode": "34299 CEDEX 5"
    },
    "Status": 0
  },
  {
    "ZipCode": "681008",
    "Id": "01H98F4F8XDX2JYJC5Q9H50CZ3",
    "Name": "Avavee",
    "Location": { "Latitude": 7.0427956, "Longitude": -73.1054544 },
    "Address": {
      "Street": "9468 Tennessee Lane",
      "Ward": "Ward 2",
      "City": "Floridablanca"
    },
    "Status": 0
  },
  {
    "ZipCode": "736 25",
    "Id": "01H98F4F8Y50EV22EBF47J2H45",
    "Name": "Gabtune",
    "Location": { "Latitude": 59.3938804, "Longitude": 15.8607653 },
    "Address": {
      "Street": "85181 Waubesa Pass",
      "Ward": "Ward 2",
      "City": "Kungsör",
      "Province": "Västmanland"
    },
    "Status": 1
  },
  {
    "ZipCode": "694210",
    "Id": "01H98F4F92SBZM9WDQQESC2PG4",
    "Name": "Centimia",
    "Location": { "Latitude": 49.1095977, "Longitude": 142.9448251 },
    "Address": {
      "Street": "14276 Warrior Trail",
      "Ward": "Ward 4",
      "City": "Gastello"
    },
    "Status": 0
  },
  {
    "ZipCode": "30302",
    "Id": "01H98F4F93ZVV3AS99KNPMEES8",
    "Name": "Topicware",
    "Location": { "Latitude": 9.9010414, "Longitude": -83.9977527 },
    "Address": {
      "Street": "83425 Harbort Circle",
      "Ward": "Ward 4",
      "City": "San Diego"
    },
    "Status": 0
  },
  {
    "ZipCode": "58225-000",
    "Id": "01H98F4F95S6WNM413X21SM47C",
    "Name": "Blogtags",
    "Location": { "Latitude": -6.7378881, "Longitude": -35.6860723 },
    "Address": {
      "Street": "12 Spenser Point",
      "Ward": "Ward 4",
      "City": "Solânea",
      "ZipCode": "5616"
    },
    "Status": 0
  },
  {
    "ZipCode": "L2V",
    "Id": "01H98F4F96D1G4S3K5DQ7V4DAR",
    "Name": "Kare",
    "Location": { "Latitude": 43.1135996, "Longitude": -79.2169174 },
    "Address": {
      "Street": "2107 Crowley Place",
      "Ward": "Ward 3",
      "City": "Thorold",
      "Province": "Ontario"
    },
    "Status": 0
  },
  {
    "ZipCode": "2826",
    "Id": "01H98F4F98WEJEFTDX00P9FG4V",
    "Name": "Gigazoom",
    "Location": { "Latitude": 10.6936663, "Longitude": 122.5655726 },
    "Address": {
      "Street": "31 Ramsey Terrace",
      "Ward": "Ward 5",
      "City": "Mabilog",
      "ZipCode": "63136"
    },
    "Status": 1
  },
  {
    "ZipCode": "14730-000",
    "Id": "01H98F4F994709PQ9C5DCYW4F7",
    "Name": "Mudo",
    "Location": { "Latitude": -20.8890637, "Longitude": -48.6790007 },
    "Address": {
      "Street": "71227 International Plaza",
      "Ward": "Ward 5",
      "City": "Monte Azul Paulista"
    },
    "Status": 1
  },
  {
    "ZipCode": "636450",
    "Id": "01H98F4F99ZP506VCHCZHR0N22",
    "Name": "Trudoo",
    "Location": { "Latitude": 58.3615767, "Longitude": 82.8403008 },
    "Address": {
      "Street": "3 Paget Court",
      "Ward": "Trường Thạnh",
      "City": "Togur"
    },
    "Status": 1
  },
  {
    "ZipCode": "27120",
    "Id": "01H98F4F9CF6XFSM8X74ERFJGB",
    "Name": "BlogXS",
    "Location": { "Latitude": 13.5215952, "Longitude": 102.1714454 },
    "Address": {
      "Street": "3588 Orin Circle",
      "Ward": "Ward 3",
      "City": "Wang Nam Yen"
    },
    "Status": 0
  },
  {
    "ZipCode": "45160",
    "Id": "01H98F4F9DVQQ4SJ0Z8EM6WHXP",
    "Name": "Voomm",
    "Location": { "Latitude": 15.823909, "Longitude": 103.8911999 },
    "Address": {
      "Street": "891 Tennessee Avenue",
      "Ward": "Ward 4",
      "City": "At Samat",
      "ZipCode": "526-0826"
    },
    "Status": 0
  },
  {
    "ZipCode": "08904",
    "Id": "01H98F4F9FPC4ERR461VEDX54Q",
    "Name": "Twimm",
    "Location": { "Latitude": 41.3730301, "Longitude": 2.116796 },
    "Address": {
      "Street": "924 Mesta Court",
      "Ward": "Trường Thạnh",
      "City": "Hospitalet De Llobregat, L'",
      "Province": "Cataluna"
    },
    "Status": 1
  },
  {
    "ZipCode": "P3N",
    "Id": "01H98F4F9HE9SBPK0948RR8T06",
    "Name": "Rhynyx",
    "Location": { "Latitude": 54.78036, "Longitude": -127.17428 },
    "Address": {
      "Street": "62848 Norway Maple Point",
      "Ward": "Ward 3",
      "City": "Smithers",
      "Province": "British Columbia"
    },
    "Status": 1
  },
  {
    "ZipCode": "34550",
    "Id": "01H98F4F9J8W0QFCCBA2G3AF33",
    "Name": "Skinte",
    "Location": { "Latitude": 62.9663709, "Longitude": 27.6707397 },
    "Address": {
      "Street": "32073 Forest Run Pass",
      "Ward": "Ward 2",
      "City": "Koukkuniemi",
      "ZipCode": "J5T"
    },
    "Status": 1
  },
  {
    "ZipCode": "25630",
    "Id": "01H98F4F9KC859Z3RNJ85W052Y",
    "Name": "BlogXS",
    "Location": { "Latitude": 60.1128845, "Longitude": 22.9535316 },
    "Address": {
      "Street": "5445 Harbort Pass",
      "Ward": "Ward 2",
      "City": "Särkisalo"
    },
    "Status": 0
  },
  {
    "ZipCode": "93335 CEDEX",
    "Id": "01H98F4F9MX079E0E1N6Q3ZTHH",
    "Name": "Tagpad",
    "Location": { "Latitude": 48.8537451, "Longitude": 2.53823 },
    "Address": {
      "Street": "0 Twin Pines Circle",
      "Ward": "Ward 5",
      "City": "Neuilly-sur-Marne",
      "Province": "Île-de-France"
    },
    "Status": 0
  },
  {
    "ZipCode": "22501",
    "Id": "01H98F4F9PDKTX8W84WWYKQ8X4",
    "Name": "Voolia",
    "Location": { "Latitude": 34.0556839, "Longitude": 73.1511314 },
    "Address": {
      "Street": "41933 Scoville Parkway",
      "Ward": "Trường Thạnh",
      "City": "Haveliān",
      "ZipCode": "7000"
    },
    "Status": 0
  },
  {
    "ZipCode": "47970-000",
    "Id": "01H98F4F9RVA4WS4TNC5QKGYQV",
    "Name": "Dabfeed",
    "Location": { "Latitude": -11.5527175, "Longitude": -45.2243578 },
    "Address": {
      "Street": "8 Grim Point",
      "Ward": "Ward 4",
      "City": "Riachão das Neves"
    },
    "Status": 0
  },
  {
    "ZipCode": "309090",
    "Id": "01H98F4F9TRMCJDGZWXW9MNWB3",
    "Name": "Meejo",
    "Location": { "Latitude": 50.6978262, "Longitude": 36.1738669 },
    "Address": {
      "Street": "97125 Tony Pass",
      "Ward": "Ward 3",
      "City": "Tomarovka"
    },
    "Status": 0
  },
  {
    "ZipCode": "68600-000",
    "Id": "01H98F4F9T3STQSCHXDVZTHM3B",
    "Name": "Centidel",
    "Location": { "Latitude": -1.0616193, "Longitude": -46.7830109 },
    "Address": {
      "Street": "11 Gateway Crossing",
      "Ward": "Ward 3",
      "City": "Bragança",
      "ZipCode": "30001"
    },
    "Status": 1
  },
  {
    "ZipCode": "700-0904",
    "Id": "01H98F4F9YYVF4NWJBG83YY2TP",
    "Name": "Divanoodle",
    "Location": { "Latitude": 32.19537, "Longitude": 130.02554 },
    "Address": {
      "Street": "59667 Helena Plaza",
      "Ward": "Ward 5",
      "City": "Ushibuka"
    },
    "Status": 1
  },
  {
    "ZipCode": "83120",
    "Id": "01H98F4FA0BX5ZAK3K3QBX3BHR",
    "Name": "Ntag",
    "Location": { "Latitude": 7.9047781, "Longitude": 98.3512841 },
    "Address": {
      "Street": "29 Pleasure Way",
      "Ward": "Ward 2",
      "City": "Wichit"
    },
    "Status": 0
  },
  {
    "ZipCode": "93820",
    "Id": "01H98F4FA1GXMZJ7CPE1FXR8K7",
    "Name": "Blogtags",
    "Location": { "Latitude": 18.6813049, "Longitude": -99.1013498 },
    "Address": {
      "Street": "448 Sunbrook Crossing",
      "Ward": "Ward 3",
      "City": "Morelos",
      "Province": "Veracruz Llave"
    },
    "Status": 1
  },
  {
    "ZipCode": "2540-170",
    "Id": "01H98F4FA3XCYGS4YR6QQBWVHX",
    "Name": "Photobug",
    "Location": { "Latitude": 39.2274333, "Longitude": -9.1706522 },
    "Address": {
      "Street": "44088 Derek Plaza",
      "Ward": "Trường Thạnh",
      "City": "Casalinho",
      "Province": "Leiria"
    },
    "Status": 1
  },
  {
    "ZipCode": "34-143",
    "Id": "01H98F4FA6EYRN4ADT1CKGYWVW",
    "Name": "Kamba",
    "Location": { "Latitude": 49.8413005, "Longitude": 19.7366045 },
    "Address": {
      "Street": "405 Cordelia Place",
      "Ward": "Ward 2",
      "City": "Lanckorona",
      "ZipCode": "60078"
    },
    "Status": 1
  },
  {
    "ZipCode": "L2N",
    "Id": "01H98F4FA7WHZTVK641P2PETPR",
    "Name": "Meetz",
    "Location": { "Latitude": 47.16663, "Longitude": -55.14829 },
    "Address": {
      "Street": "5 Pond Pass",
      "Ward": "Trường Thạnh",
      "City": "Marystown",
      "Province": "Newfoundland and Labrador",
      "ZipCode": "4401"
    },
    "Status": 1
  },
  {
    "ZipCode": "452800",
    "Id": "01H98F4FA8TA4VZPC1DSQ06C1Z",
    "Name": "Edgetag",
    "Location": { "Latitude": 56.2674828, "Longitude": 54.9252541 },
    "Address": {
      "Street": "9970 Melody Circle",
      "Ward": "Ward 5",
      "City": "Yanaul"
    },
    "Status": 1
  },
  {
    "ZipCode": "2985-209",
    "Id": "01H98F4FAAYZ36NF953E6G2H61",
    "Name": "Jaxbean",
    "Location": { "Latitude": 38.683885, "Longitude": -8.6109719 },
    "Address": {
      "Street": "2 Lyons Court",
      "Ward": "Ward 2",
      "City": "Pegões",
      "Province": "Setúbal"
    },
    "Status": 1
  },
  {
    "ZipCode": "6819",
    "Id": "01H98F4FADQ45ADVP6H9ZNK6B3",
    "Name": "Voomm",
    "Location": { "Latitude": 10.3764175, "Longitude": 119.1852645 },
    "Address": {
      "Street": "32 Mitchell Street",
      "Ward": "Ward 2",
      "City": "Port Barton",
      "ZipCode": "15604"
    },
    "Status": 0
  },
  {
    "ZipCode": "22304 CEDEX",
    "Id": "01H98F4FAF8ZBFQ45DQ852D672",
    "Name": "Flipopia",
    "Location": { "Latitude": 0, "Longitude": 2.8125 },
    "Address": {
      "Street": "7 Columbus Street",
      "Ward": "Ward 3",
      "City": "Lannion",
      "Province": "Bretagne",
      "ZipCode": "561 85"
    },
    "Status": 1
  },
  {
    "ZipCode": "83040 CEDEX 9",
    "Id": "01H98F4FAG3WG3AQ1CAXW45YP7",
    "Name": "Skimia",
    "Location": { "Latitude": 43.1283145, "Longitude": 5.9294606 },
    "Address": {
      "Street": "26623 Stuart Way",
      "Ward": "Ward 2",
      "City": "Toulon",
      "Province": "Provence-Alpes-Côte d'Azur",
      "ZipCode": "3240-466"
    },
    "Status": 0
  },
  {
    "ZipCode": "4900",
    "Id": "01H98F4FAHZWCTRTT1HWZAJGW4",
    "Name": "Riffwire",
    "Location": { "Latitude": 13.3585301, "Longitude": 121.8247013 },
    "Address": {
      "Street": "13605 Ramsey Lane",
      "Ward": "Ward 2",
      "City": "Masiga",
      "ZipCode": "7210"
    },
    "Status": 1
  },
  {
    "ZipCode": "15250",
    "Id": "01H98F4FAJFW2PFN2SPT5FQ8A9",
    "Name": "Jabberbean",
    "Location": { "Latitude": 40.44, "Longitude": -79.9599999 },
    "Address": {
      "Street": "7590 Memorial Pass",
      "Ward": "Trường Thạnh",
      "City": "Pittsburgh",
      "Province": "Pennsylvania"
    },
    "Status": 0
  },
  {
    "ZipCode": "5382",
    "Id": "01H98F4FAK04TMDB6JDZRR6KTR",
    "Name": "Jaxnation",
    "Location": { "Latitude": -31.9974697, "Longitude": 27.6640187 },
    "Address": {
      "Street": "9930 Dottie Hill",
      "Ward": "Trường Thạnh",
      "City": "Cofimvaba"
    },
    "Status": 1
  },
  {
    "ZipCode": "28890-000",
    "Id": "01H98F4FAXHPQ89MBGSJRTC5HY",
    "Name": "Bubblemix",
    "Location": { "Latitude": -22.4206096, "Longitude": -41.8625084 },
    "Address": {
      "Street": "45844 Luster Court",
      "Ward": "Ward 5",
      "City": "Rio das Ostras"
    },
    "Status": 0
  },
  {
    "ZipCode": "E7E",
    "Id": "01H98F4FAY5GQCWHTRP052Z8NR",
    "Name": "DabZ",
    "Location": { "Latitude": 47.216667, "Longitude": -67.916667 },
    "Address": {
      "Street": "16 Burning Wood Terrace",
      "Ward": "Ward 2",
      "City": "Harrison Brook",
      "Province": "New Brunswick"
    },
    "Status": 1
  },
  {
    "ZipCode": "98620",
    "Id": "01H98F4FAZQZQX90YN83Z1MQGN",
    "Name": "Yakidoo",
    "Location": { "Latitude": -14.29034, "Longitude": -178.16551 },
    "Address": {
      "Street": "4203 North Drive",
      "Ward": "Ward 4",
      "City": "Sigavé",
      "ZipCode": "L-5408"
    },
    "Status": 1
  },
  {
    "ZipCode": "1100",
    "Id": "01H98F4FB3JWS313MKEGQTN4K4",
    "Name": "Dabshots",
    "Location": { "Latitude": 15.6286312, "Longitude": 121.0607193 },
    "Address": {
      "Street": "68 Golden Leaf Way",
      "Ward": "Ward 5",
      "City": "Piñahan"
    },
    "Status": 1
  },
  {
    "ZipCode": "361327",
    "Id": "01H98F4FB59VZMPZ6164AVRFV5",
    "Name": "Centimia",
    "Location": { "Latitude": 43.47139, "Longitude": 43.84694 },
    "Address": {
      "Street": "607 Main Circle",
      "Ward": "Ward 3",
      "City": "Staryy Cherek"
    },
    "Status": 1
  },
  {
    "ZipCode": "052837",
    "Id": "01H98F4FB8MDXYZC1SD53D7W2F",
    "Name": "Browsetype",
    "Location": { "Latitude": 6.772879, "Longitude": -74.796476 },
    "Address": {
      "Street": "1 Mosinee Point",
      "Ward": "Ward 2",
      "City": "Vegachí"
    },
    "Status": 0
  },
  {
    "ZipCode": "783 72",
    "Id": "01H98F4FBAFTD6DGH481C7JTBN",
    "Name": "Zooveo",
    "Location": { "Latitude": 49.5519718, "Longitude": 17.3375604 },
    "Address": {
      "Street": "570 Autumn Leaf Circle",
      "Ward": "Ward 5",
      "City": "Velký Týnec"
    },
    "Status": 1
  },
  {
    "ZipCode": "09300-000",
    "Id": "01H98F4FBBGN3PJAKRXFVZ2T17",
    "Name": "Lazz",
    "Location": { "Latitude": -23.668163, "Longitude": -46.4617086 },
    "Address": {
      "Street": "0791 Larry Crossing",
      "Ward": "Ward 3",
      "City": "Mauá",
      "ZipCode": "150449"
    },
    "Status": 0
  },
  {
    "ZipCode": "74704 CEDEX",
    "Id": "01H98F4FBFQ6WEVG39KT55CK3B",
    "Name": "Eadel",
    "Location": { "Latitude": 45.945945, "Longitude": 6.6371251 },
    "Address": {
      "Street": "82 Golden Leaf Plaza",
      "Ward": "Trường Thạnh",
      "City": "Sallanches",
      "Province": "Rhône-Alpes",
      "ZipCode": "48880-000"
    },
    "Status": 0
  },
  {
    "ZipCode": "4643",
    "Id": "01H98F4FBG1T69VW01PCSY9FWA",
    "Name": "Babbleset",
    "Location": { "Latitude": -24.1973637, "Longitude": -65.2994788 },
    "Address": {
      "Street": "913 Lotheville Alley",
      "Ward": "Trường Thạnh",
      "City": "Rinconada"
    },
    "Status": 1
  },
  {
    "ZipCode": "23514",
    "Id": "01H98F4FBMCHT3PYDXCN2WQ9ZE",
    "Name": "Thoughtblab",
    "Location": { "Latitude": 36.8466981, "Longitude": -76.2900032 },
    "Address": {
      "Street": "94 Shoshone Center",
      "Ward": "Ward 3",
      "City": "Norfolk",
      "Province": "Virginia"
    },
    "Status": 0
  },
  {
    "ZipCode": "43240",
    "Id": "01H98F4FBQ61ETB4P53X5VJDJH",
    "Name": "Gabspot",
    "Location": { "Latitude": 40.1420033, "Longitude": -82.9770371 },
    "Address": {
      "Street": "6649 Melrose Junction",
      "Ward": "Ward 2",
      "City": "Columbus",
      "Province": "Ohio"
    },
    "Status": 1
  },
  {
    "ZipCode": "170513",
    "Id": "01H98F4FBXASJ2Y2847EATRFPN",
    "Name": "Skippad",
    "Location": { "Latitude": 56.9084942, "Longitude": 36.234674 },
    "Address": {
      "Street": "954 American Pass",
      "Ward": "Ward 5",
      "City": "Orsha"
    },
    "Status": 0
  },
  {
    "ZipCode": "V31",
    "Id": "01H98F4FC0V35PQVKH4HT5JYC5",
    "Name": "Wordify",
    "Location": { "Latitude": 53.0917381, "Longitude": -8.2215941 },
    "Address": {
      "Street": "71 West Park",
      "Ward": "Trường Thạnh",
      "City": "Portumna"
    },
    "Status": 0
  },
  {
    "ZipCode": "A83",
    "Id": "01H98F4FC26TYBH85D7416EGP0",
    "Name": "Zoomlounge",
    "Location": { "Latitude": 53.3655256, "Longitude": -6.3077823 },
    "Address": {
      "Street": "762 Glendale Point",
      "Ward": "Ward 3",
      "City": "Valleymount",
      "ZipCode": "G9A"
    },
    "Status": 0
  },
  {
    "ZipCode": "361012",
    "Id": "01H98F4FC3GGG0W2A40RCQYPH7",
    "Name": "Yadel",
    "Location": { "Latitude": 45.4289, "Longitude": 40.5244001 },
    "Address": {
      "Street": "8401 Katie Terrace",
      "Ward": "Ward 5",
      "City": "Kropotkin",
      "ZipCode": "1870"
    },
    "Status": 1
  },
  {
    "ZipCode": "4124",
    "Id": "01H98F4FC44S4QJJG0JC3F109T",
    "Name": "Feedfire",
    "Location": { "Latitude": 14.1843767, "Longitude": 120.7959491 },
    "Address": {
      "Street": "35407 Green Ridge Way",
      "Ward": "Ward 3",
      "City": "General Emilio Aguinaldo",
      "ZipCode": "9600"
    },
    "Status": 0
  },
  {
    "ZipCode": "63-640",
    "Id": "01H98F4FC56D5JA9N6VJW4SBWA",
    "Name": "Jayo",
    "Location": { "Latitude": 51.2820434, "Longitude": 17.9082196 },
    "Address": {
      "Street": "21056 Briar Crest Road",
      "Ward": "Ward 4",
      "City": "Bralin",
      "ZipCode": "B40"
    },
    "Status": 1
  },
  {
    "ZipCode": "95940-000",
    "Id": "01H98F4FC6M7844154Z90CZ5C8",
    "Name": "Twinder",
    "Location": { "Latitude": -29.3652193, "Longitude": -51.9580164 },
    "Address": {
      "Street": "20436 Westridge Circle",
      "Ward": "Ward 3",
      "City": "Arroio do Meio"
    },
    "Status": 1
  },
  {
    "ZipCode": "429127",
    "Id": "01H98F4FC7RVZD2QBP68R48ZCF",
    "Name": "Dablist",
    "Location": { "Latitude": 55.5039231, "Longitude": 46.3984938 },
    "Address": {
      "Street": "7522 Thompson Center",
      "Ward": "Ward 4",
      "City": "Shumerlya"
    },
    "Status": 1
  },
  {
    "ZipCode": "352244",
    "Id": "01H98F4FCAFWJ70YX1FT9DRSNA",
    "Name": "Oyonder",
    "Location": { "Latitude": 45.1141124, "Longitude": 41.0051614 },
    "Address": {
      "Street": "2 Cambridge Point",
      "Ward": "Ward 2",
      "City": "Novokubansk"
    },
    "Status": 0
  },
  {
    "ZipCode": "31407",
    "Id": "01H98F4FCCBNEE9VE4N849F0M9",
    "Name": "Browsecat",
    "Location": { "Latitude": 4.6096768, "Longitude": 101.1064003 },
    "Address": {
      "Street": "9 Miller Place",
      "Ward": "Ward 5",
      "City": "Ipoh",
      "Province": "Perak"
    },
    "Status": 0
  },
  {
    "ZipCode": "89135",
    "Id": "01H98F4FCEVVPE4TTCXGV0C6JR",
    "Name": "Rhyzio",
    "Location": { "Latitude": 36.1100428, "Longitude": -115.3667218 },
    "Address": {
      "Street": "31 Loomis Drive",
      "Ward": "Ward 2",
      "City": "Las Vegas",
      "Province": "Nevada",
      "ZipCode": "38-473"
    },
    "Status": 0
  },
  {
    "ZipCode": "418049",
    "Id": "01H98F4FCFZWHY8NY26P23XVNC",
    "Name": "Voonte",
    "Location": { "Latitude": 1.932389, "Longitude": -76.214046 },
    "Address": {
      "Street": "62079 Warner Avenue",
      "Ward": "Ward 2",
      "City": "Isnos"
    },
    "Status": 1
  },
  {
    "ZipCode": "4624",
    "Id": "01H98F4FCH56Z8A3X0ZP6GETZX",
    "Name": "Divape",
    "Location": { "Latitude": -24.3817381, "Longitude": -65.1218129 },
    "Address": {
      "Street": "57 Dunning Center",
      "Ward": "Trường Thạnh",
      "City": "Maimará",
      "ZipCode": "3887"
    },
    "Status": 0
  },
  {
    "ZipCode": "241551",
    "Id": "01H98F4FCKS6Y70XJAF324PXAB",
    "Name": "Eadel",
    "Location": { "Latitude": 53.3656498, "Longitude": 34.1098425 },
    "Address": {
      "Street": "77 Di Loreto Avenue",
      "Ward": "Ward 3",
      "City": "Sel’tso",
      "ZipCode": "081067"
    },
    "Status": 1
  },
  {
    "ZipCode": "168 74",
    "Id": "01H98F4FCMJE5FWB9J8SDBMRCT",
    "Name": "Avaveo",
    "Location": { "Latitude": 59.3449175, "Longitude": 17.9492451 },
    "Address": {
      "Street": "71568 Sunbrook Circle",
      "Ward": "Ward 2",
      "City": "Bromma",
      "Province": "Stockholm"
    },
    "Status": 0
  },
  {
    "ZipCode": "1555",
    "Id": "01H98F4FCRQJKQQZQY5ES0HD9R",
    "Name": "Eimbee",
    "Location": { "Latitude": 6.8954177, "Longitude": 126.0203934 },
    "Address": {
      "Street": "2 Sherman Circle",
      "Ward": "Ward 5",
      "City": "Ilangay"
    },
    "Status": 1
  },
  {
    "ZipCode": "44958 CEDEX 9",
    "Id": "01H98F4FE2SRAQE8C15FTR2S3E",
    "Name": "Jaloo",
    "Location": { "Latitude": 47.2550409, "Longitude": -1.5401497 },
    "Address": {
      "Street": "60 Sycamore Drive",
      "Ward": "Ward 5",
      "City": "Nantes",
      "Province": "Pays de la Loire",
      "ZipCode": "J8R"
    },
    "Status": 0
  },
  {
    "ZipCode": "90140",
    "Id": "01H98F4FE3P1QBVAEJT07RHA21",
    "Name": "Twitternation",
    "Location": { "Latitude": 7.7896079, "Longitude": 100.3048897 },
    "Address": {
      "Street": "16270 Calypso Street",
      "Ward": "Ward 3",
      "City": "Ranot"
    },
    "Status": 0
  },
  {
    "ZipCode": "90110",
    "Id": "01H98F4FE52ZBR88E1F1JMVQ54",
    "Name": "Twimbo",
    "Location": { "Latitude": 7.0086472, "Longitude": 100.4746879 },
    "Address": {
      "Street": "2 Boyd Alley",
      "Ward": "Ward 5",
      "City": "Hat Yai"
    },
    "Status": 1
  },
  {
    "ZipCode": "353400",
    "Id": "01H98F4FE6CHJ2BNYSGG06GZTP",
    "Name": "Shufflester",
    "Location": { "Latitude": 45.0206335, "Longitude": 37.5017499 },
    "Address": {
      "Street": "48516 Manitowish Place",
      "Ward": "Ward 5",
      "City": "Gostagayevskaya"
    },
    "Status": 1
  },
  {
    "ZipCode": "68870-000",
    "Id": "01H98F4FE8H1QG5EX9N6S2PYH8",
    "Name": "Skippad",
    "Location": { "Latitude": -0.5083679, "Longitude": -48.6388879 },
    "Address": {
      "Street": "841 Armistice Junction",
      "Ward": "Ward 5",
      "City": "Soure",
      "ZipCode": "195047"
    },
    "Status": 0
  },
  {
    "ZipCode": "21001",
    "Id": "01H98F4FEBPX9P4B0FXPWAH4GJ",
    "Name": "Aibox",
    "Location": { "Latitude": 54.6219097, "Longitude": 24.9344265 },
    "Address": {
      "Street": "83 Fisk Way",
      "Ward": "Ward 4",
      "City": "Trakai",
      "ZipCode": "4425"
    },
    "Status": 1
  },
  {
    "ZipCode": "183 15",
    "Id": "01H98F4FEC32Z1VZRMZJFBQ0TQ",
    "Name": "Twitternation",
    "Location": { "Latitude": 59.4445121, "Longitude": 18.071399 },
    "Address": {
      "Street": "83 Bellgrove Junction",
      "Ward": "Ward 3",
      "City": "Täby",
      "Province": "Stockholm",
      "ZipCode": "4025"
    },
    "Status": 1
  },
  {
    "ZipCode": "6330",
    "Id": "01H98F4FEDS8RV0ZDHYHWEGSF9",
    "Name": "Demizz",
    "Location": { "Latitude": -34.6230015, "Longitude": -58.5764959 },
    "Address": {
      "Street": "95476 Corben Street",
      "Ward": "Ward 2",
      "City": "Catriló",
      "ZipCode": "2627"
    },
    "Status": 1
  },
  {
    "ZipCode": "18730-000",
    "Id": "01H98F4FEGZBWDQWFWN392T5E5",
    "Name": "Tazzy",
    "Location": { "Latitude": -23.4217742, "Longitude": -49.0924714 },
    "Address": {
      "Street": "4378 Green Avenue",
      "Ward": "Trường Thạnh",
      "City": "Itaí",
      "ZipCode": "37174 CEDEX"
    },
    "Status": 0
  },
  {
    "ZipCode": "59463 CEDEX",
    "Id": "01H98F4FEH7W71F3Q3PBK9CG82",
    "Name": "Quinu",
    "Location": { "Latitude": 50.6503044, "Longitude": 2.9982752 },
    "Address": {
      "Street": "29667 Monterey Alley",
      "Ward": "Ward 3",
      "City": "Lomme",
      "Province": "Nord-Pas-de-Calais"
    },
    "Status": 1
  },
  {
    "ZipCode": "636785",
    "Id": "01H98F4FEJGRMTK09NTRJ3NXGR",
    "Name": "Babblestorm",
    "Location": { "Latitude": 60.7353362, "Longitude": 77.6065163 },
    "Address": {
      "Street": "830 Dwight Street",
      "Ward": "Ward 3",
      "City": "Strezhevoy"
    },
    "Status": 1
  },
  {
    "ZipCode": "1853",
    "Id": "01H98F4FENP5XPPFCAK5NSM5PM",
    "Name": "Flashset",
    "Location": { "Latitude": 55.6755324, "Longitude": 12.5366206 },
    "Address": {
      "Street": "32 Maryland Hill",
      "Ward": "Ward 2",
      "City": "Frederiksberg",
      "Province": "Region Hovedstaden",
      "ZipCode": "10270"
    },
    "Status": 0
  },
  {
    "ZipCode": "40160",
    "Id": "01H98F4FEPDMP0679GR4K8B2HD",
    "Name": "Twimm",
    "Location": { "Latitude": 18.2886378, "Longitude": -99.4526826 },
    "Address": {
      "Street": "38 Express Alley",
      "Ward": "Trường Thạnh",
      "City": "Lazaro Cardenas",
      "Province": "Guerrero",
      "ZipCode": "781 29"
    },
    "Status": 1
  },
  {
    "ZipCode": "71085",
    "Id": "01H98F4FEVMEA9NJGD72461X0Q",
    "Name": "Skinix",
    "Location": { "Latitude": 55.07917, "Longitude": 22.97583 },
    "Address": {
      "Street": "80 La Follette Alley",
      "Ward": "Ward 4",
      "City": "Gelgaudiškis",
      "ZipCode": "55900-000"
    },
    "Status": 0
  },
  {
    "ZipCode": "91965 CEDEX",
    "Id": "01H98F4FEYE4DJ86EB8T9VATJR",
    "Name": "Edgeify",
    "Location": { "Latitude": 48.695223, "Longitude": 2.190167 },
    "Address": {
      "Street": "2500 Center Crossing",
      "Ward": "Ward 2",
      "City": "Courtaboeuf",
      "Province": "Île-de-France"
    },
    "Status": 1
  },
  {
    "ZipCode": "25501",
    "Id": "01H98F4FF0PD8BPDYPM9PM2A97",
    "Name": "Linkbuzz",
    "Location": { "Latitude": 60.2285503, "Longitude": 23.1228098 },
    "Address": {
      "Street": "52 Summerview Trail",
      "Ward": "Ward 5",
      "City": "Perniö",
      "ZipCode": "1033"
    },
    "Status": 0
  },
  {
    "ZipCode": "78020 CEDEX",
    "Id": "01H98F4FF2PCVKK1H753TVXJP1",
    "Name": "Brightbean",
    "Location": { "Latitude": 48.8048649, "Longitude": 2.1203554 },
    "Address": {
      "Street": "1428 Monument Place",
      "Ward": "Ward 2",
      "City": "Versailles",
      "Province": "Île-de-France",
      "ZipCode": "113 39"
    },
    "Status": 1
  },
  {
    "ZipCode": "352272",
    "Id": "01H98F4FF397PT4EWK5VTFMN4D",
    "Name": "Tekfly",
    "Location": { "Latitude": 44.2147685, "Longitude": 41.5683289 },
    "Address": {
      "Street": "21 Burning Wood Lane",
      "Ward": "Ward 4",
      "City": "Udobnaya",
      "ZipCode": "2416"
    },
    "Status": 1
  },
  {
    "ZipCode": "7220-357",
    "Id": "01H98F4FF495D0MSFMGW1BD7PJ",
    "Name": "Viva",
    "Location": { "Latitude": 38.3089089, "Longitude": -7.7085755 },
    "Address": {
      "Street": "61221 Maple Wood Road",
      "Ward": "Ward 5",
      "City": "Portel",
      "Province": "Évora"
    },
    "Status": 1
  },
  {
    "ZipCode": "34643",
    "Id": "01H98F4FF68HQXSVF40B4N73ZJ",
    "Name": "Quinu",
    "Location": { "Latitude": 33.7484047, "Longitude": -116.3520354 },
    "Address": {
      "Street": "5141 Hansons Hill",
      "Ward": "Ward 2",
      "City": "Largo",
      "Province": "Florida",
      "ZipCode": "33673"
    },
    "Status": 1
  },
  {
    "ZipCode": "651 01",
    "Id": "01H98F4FFAXW486Y727MC19BN5",
    "Name": "Gabtype",
    "Location": { "Latitude": 59.379366, "Longitude": 13.503977 },
    "Address": {
      "Street": "19 Barnett Parkway",
      "Ward": "Ward 4",
      "City": "Karlstad",
      "Province": "Värmland",
      "ZipCode": "33411"
    },
    "Status": 0
  },
  {
    "ZipCode": "5285",
    "Id": "01H98F4FFBD5AKNGC00KRB4CN9",
    "Name": "Voonte",
    "Location": { "Latitude": -32.9817511, "Longitude": -60.6944851 },
    "Address": {
      "Street": "2 Ramsey Court",
      "Ward": "Ward 5",
      "City": "Camilo Aldao"
    },
    "Status": 0
  },
  {
    "ZipCode": "4004",
    "Id": "01H98F4FFDDQSPWVY39B0M9ETM",
    "Name": "Divape",
    "Location": { "Latitude": 51.9094928, "Longitude": 5.4352554 },
    "Address": {
      "Street": "90 Everett Pass",
      "Ward": "Trường Thạnh",
      "City": "Tiel",
      "Province": "Provincie Gelderland",
      "ZipCode": "2338"
    },
    "Status": 0
  },
  {
    "ZipCode": "9610",
    "Id": "01H98F4FFE1EJ6YVTCMVGW0E87",
    "Name": "Dabfeed",
    "Location": { "Latitude": 8.9215342, "Longitude": 117.5532603 },
    "Address": {
      "Street": "877 Sachtjen Park",
      "Ward": "Ward 5",
      "City": "Panalingaan",
      "ZipCode": "97-420"
    },
    "Status": 0
  },
  {
    "ZipCode": "5285",
    "Id": "01H98F4FFFS9PDPKSQC9YDT0BZ",
    "Name": "Shufflebeat",
    "Location": { "Latitude": -32.9817511, "Longitude": -60.6944851 },
    "Address": {
      "Street": "7 Mosinee Place",
      "Ward": "Ward 5",
      "City": "Camilo Aldao",
      "ZipCode": "23890-000"
    },
    "Status": 1
  },
  {
    "ZipCode": "937 91",
    "Id": "01H98F4FFGA77V7QSV6DRCS5QS",
    "Name": "Skipstorm",
    "Location": { "Latitude": 64.6025198, "Longitude": 20.4852704 },
    "Address": {
      "Street": "1 Nova Trail",
      "Ward": "Ward 3",
      "City": "Burträsk",
      "Province": "Västerbotten",
      "ZipCode": "5911"
    },
    "Status": 1
  },
  {
    "ZipCode": "338 45",
    "Id": "01H98F4FFMRV854Y3QX78W1HT9",
    "Name": "Skippad",
    "Location": { "Latitude": 49.735524, "Longitude": 13.7575556 },
    "Address": {
      "Street": "305 Talmadge Street",
      "Ward": "Ward 2",
      "City": "Strašice"
    },
    "Status": 0
  },
  {
    "ZipCode": "76000",
    "Id": "01H98F4FFRYZ37KR5FXFB6VT6H",
    "Name": "Tagopia",
    "Location": { "Latitude": 25.3681203, "Longitude": 68.3122196 },
    "Address": {
      "Street": "1985 Pennsylvania Court",
      "Ward": "Ward 3",
      "City": "Kotri",
      "ZipCode": "257 08"
    },
    "Status": 1
  },
  {
    "ZipCode": "1040",
    "Id": "01H98F4FFTG4ZJZV4R2X9V5KAX",
    "Name": "Kayveo",
    "Location": { "Latitude": 41.9986907, "Longitude": 21.4874715 },
    "Address": {
      "Street": "0207 Morningstar Pass",
      "Ward": "Ward 4",
      "City": "Čair"
    },
    "Status": 1
  },
  {
    "ZipCode": "J1S",
    "Id": "01H98F4FFV5GW8D2TZH40HNJNG",
    "Name": "Reallinks",
    "Location": { "Latitude": 45.5787215, "Longitude": -72.001055 },
    "Address": {
      "Street": "41 Doe Crossing Plaza",
      "Ward": "Ward 2",
      "City": "Windsor",
      "Province": "Québec",
      "ZipCode": "75216"
    },
    "Status": 1
  },
  {
    "ZipCode": "32-400",
    "Id": "01H98F4FFW5AHAC95FSYZX7CR6",
    "Name": "Mydo",
    "Location": { "Latitude": 49.83347, "Longitude": 19.93965 },
    "Address": {
      "Street": "716 Bonner Road",
      "Ward": "Ward 4",
      "City": "Myślenice",
      "ZipCode": "40324"
    },
    "Status": 0
  },
  {
    "ZipCode": "186806",
    "Id": "01H98F4FG2H2WAXAZVNXCWXKQ3",
    "Name": "Flashpoint",
    "Location": { "Latitude": 61.7575929, "Longitude": 31.0233095 },
    "Address": {
      "Street": "507 Cambridge Point",
      "Ward": "Trường Thạnh",
      "City": "Lyaskelya"
    },
    "Status": 1
  },
  {
    "ZipCode": "78504 CEDEX",
    "Id": "01H98F4FG367P1WFPHVDY2CE67",
    "Name": "Rhybox",
    "Location": { "Latitude": 48.9378251, "Longitude": 2.1570562 },
    "Address": {
      "Street": "570 Norway Maple Street",
      "Ward": "Ward 4",
      "City": "Sartrouville",
      "Province": "Île-de-France",
      "ZipCode": "612-8447"
    },
    "Status": 1
  },
  {
    "ZipCode": "6341",
    "Id": "01H98F4FG7CP1F0W6T4A13Q8WR",
    "Name": "Mybuzz",
    "Location": { "Latitude": 14.6074523, "Longitude": 121.1136216 },
    "Address": {
      "Street": "9374 Myrtle Trail",
      "Ward": "Ward 5",
      "City": "Cortes",
      "ZipCode": "2525"
    },
    "Status": 0
  },
  {
    "ZipCode": "92511 CEDEX",
    "Id": "01H98F4FG87GJ7HVG9CX06SFWS",
    "Name": "Realblab",
    "Location": { "Latitude": 48.830394, "Longitude": 2.2372823 },
    "Address": {
      "Street": "20449 Memorial Alley",
      "Ward": "Ward 4",
      "City": "Boulogne-Billancourt",
      "Province": "Île-de-France"
    },
    "Status": 1
  },
  {
    "ZipCode": "57900-000",
    "Id": "01H98F4FGD45SFYF7DZ0NGCH29",
    "Name": "Mynte",
    "Location": { "Latitude": -9.0047392, "Longitude": -35.4124355 },
    "Address": {
      "Street": "5 Barby Pass",
      "Ward": "Trường Thạnh",
      "City": "Porto Calvo"
    },
    "Status": 0
  },
  {
    "ZipCode": "J8R",
    "Id": "01H98F4FGG63HDX0AD4ECDG9NE",
    "Name": "Muxo",
    "Location": { "Latitude": 45.4139794, "Longitude": -75.7103682 },
    "Address": {
      "Street": "40508 Anzinger Junction",
      "Ward": "Ward 3",
      "City": "Unity",
      "Province": "Saskatchewan"
    },
    "Status": 0
  },
  {
    "ZipCode": "7340-214",
    "Id": "01H98F4FGHVK0SPNNQZZMYWC72",
    "Name": "Rhynoodle",
    "Location": { "Latitude": 39.1935336, "Longitude": -7.2866952 },
    "Address": {
      "Street": "26 Gale Center",
      "Ward": "Ward 4",
      "City": "Mosteiros",
      "Province": "Portalegre"
    },
    "Status": 1
  },
  {
    "ZipCode": "6281",
    "Id": "01H98F4FGNGJ4BWSWCSCC6D76W",
    "Name": "Ozu",
    "Location": { "Latitude": 45.5746977, "Longitude": 13.7677916 },
    "Address": {
      "Street": "5105 Manufacturers Center",
      "Ward": "Trường Thạnh",
      "City": "Hrvatini",
      "ZipCode": "652245"
    },
    "Status": 1
  },
  {
    "ZipCode": "18-105",
    "Id": "01H98F4FGPKDMQXXE93JMKVNB0",
    "Name": "DabZ",
    "Location": { "Latitude": 52.9490114, "Longitude": 22.9564233 },
    "Address": {
      "Street": "44694 Iowa Terrace",
      "Ward": "Ward 5",
      "City": "Suraż",
      "ZipCode": "3105"
    },
    "Status": 1
  },
  {
    "ZipCode": "646604",
    "Id": "01H98F4FGS42FWK9AF4CHBXXMZ",
    "Name": "Cogidoo",
    "Location": { "Latitude": 54.9850214, "Longitude": 83.0470827 },
    "Address": {
      "Street": "59 Corben Drive",
      "Ward": "Trường Thạnh",
      "City": "Inya"
    },
    "Status": 0
  },
  {
    "ZipCode": "9754",
    "Id": "01H98F4FGT9QESNPSABF7HY6RK",
    "Name": "Blogtags",
    "Location": { "Latitude": -30.6866136, "Longitude": 26.7063745 },
    "Address": {
      "Street": "33799 Oriole Place",
      "Ward": "Ward 4",
      "City": "Aliwal North",
      "ZipCode": "182 74"
    },
    "Status": 1
  },
  {
    "ZipCode": "30648",
    "Id": "01H98F4FGYBMM6X226VE2HRWQN",
    "Name": "Zoombeat",
    "Location": { "Latitude": 4.6096768, "Longitude": 101.1064003 },
    "Address": {
      "Street": "4 Orin Parkway",
      "Ward": "Ward 3",
      "City": "Ipoh",
      "Province": "Perak"
    },
    "Status": 1
  },
  {
    "ZipCode": "85760-000",
    "Id": "01H98F4FH1EM9S6NX90280PCWM",
    "Name": "Skinder",
    "Location": { "Latitude": -25.6200963, "Longitude": -53.758612 },
    "Address": {
      "Street": "786 Novick Circle",
      "Ward": "Ward 3",
      "City": "Capanema"
    },
    "Status": 1
  },
  {
    "ZipCode": "1084",
    "Id": "01H98F4FH28CPB87X6JBSF02PY",
    "Name": "Blogspan",
    "Location": { "Latitude": 8.4864751, "Longitude": 124.7352102 },
    "Address": {
      "Street": "951 East Point",
      "Ward": "Trường Thạnh",
      "City": "Conduaga"
    },
    "Status": 0
  },
  {
    "ZipCode": "84160-000",
    "Id": "01H98F4FH3G368HV7GGRNT39S5",
    "Name": "Agivu",
    "Location": { "Latitude": -24.7902746, "Longitude": -49.7728757 },
    "Address": {
      "Street": "501 Commercial Way",
      "Ward": "Ward 5",
      "City": "Castro"
    },
    "Status": 0
  },
  {
    "ZipCode": "6004",
    "Id": "01H98F4FH5QX98K74GWYGQZBY1",
    "Name": "Jabberbean",
    "Location": { "Latitude": 46.9067373, "Longitude": 19.691788 },
    "Address": {
      "Street": "09 Anderson Circle",
      "Ward": "Ward 3",
      "City": "Kecskemét",
      "Province": "Bács-Kiskun",
      "ZipCode": "4770-354"
    },
    "Status": 1
  },
  {
    "ZipCode": "4534",
    "Id": "01H98F4FH7EP3DKMYSWT1FW8N8",
    "Name": "Tekfly",
    "Location": { "Latitude": 52.359151, "Longitude": 5.1999127 },
    "Address": {
      "Street": "2 Bayside Terrace",
      "Ward": "Ward 4",
      "City": "Terneuzen",
      "Province": "Provincie Zeeland"
    },
    "Status": 0
  },
  {
    "ZipCode": "H71",
    "Id": "01H98F4FH92E03AF9J42J98QCW",
    "Name": "Tekfly",
    "Location": { "Latitude": 51.9166667, "Longitude": -8.05 },
    "Address": {
      "Street": "032 Erie Trail",
      "Ward": "Ward 3",
      "City": "Castlemartyr",
      "ZipCode": "38840-000"
    },
    "Status": 1
  },
  {
    "ZipCode": "5121",
    "Id": "01H98F4FHBE78Z8JGYR2WV2H6Q",
    "Name": "Divavu",
    "Location": { "Latitude": -27.8341089, "Longitude": 25.9063474 },
    "Address": {
      "Street": "078 Grayhawk Crossing",
      "Ward": "Ward 4",
      "City": "Hoopstad"
    },
    "Status": 0
  },
  {
    "ZipCode": "9960",
    "Id": "01H98F4FHC5AXGQ9RN30GQ71C9",
    "Name": "Eare",
    "Location": { "Latitude": 43.6165639, "Longitude": 27.091526 },
    "Address": {
      "Street": "82651 Golden Leaf Trail",
      "Ward": "Ward 5",
      "City": "Kaolinovo"
    },
    "Status": 0
  },
  {
    "ZipCode": "80638",
    "Id": "01H98F4FHDB1SP1ETJ75BZNAAE",
    "Name": "Browsedrive",
    "Location": { "Latitude": 40.42, "Longitude": -104.7099999 },
    "Address": {
      "Street": "77 Graceland Park",
      "Ward": "Trường Thạnh",
      "City": "Greeley",
      "Province": "Colorado"
    },
    "Status": 0
  },
  {
    "ZipCode": "23005",
    "Id": "01H98F4FHEHBW3VBD3DAR7410F",
    "Name": "Rhynoodle",
    "Location": { "Latitude": 37.7801069, "Longitude": -3.8235525 },
    "Address": {
      "Street": "5 Bayside Pass",
      "Ward": "Ward 2",
      "City": "Jaen",
      "Province": "Andalucia",
      "ZipCode": "999-8531"
    },
    "Status": 0
  },
  {
    "ZipCode": "4105",
    "Id": "01H98F4FHKA9Z5G9P82G4QSKG0",
    "Name": "Gigashots",
    "Location": { "Latitude": 14.434698, "Longitude": 120.878011 },
    "Address": {
      "Street": "3 Sage Lane",
      "Ward": "Trường Thạnh",
      "City": "Noveleta",
      "ZipCode": "171270"
    },
    "Status": 1
  },
  {
    "ZipCode": "9103",
    "Id": "01H98F4FHNP6V8GTSK3PP3M4PM",
    "Name": "Muxo",
    "Location": { "Latitude": -37.9707308, "Longitude": -57.6258993 },
    "Address": {
      "Street": "138 Nobel Place",
      "Ward": "Ward 2",
      "City": "Rawson",
      "ZipCode": "S7W"
    },
    "Status": 1
  },
  {
    "ZipCode": "542 95",
    "Id": "01H98F4FHPF0P2F6HK79M2DQDV",
    "Name": "Avamm",
    "Location": { "Latitude": 58.6429512, "Longitude": 13.6587955 },
    "Address": {
      "Street": "47 Brown Trail",
      "Ward": "Ward 3",
      "City": "Mariestad",
      "Province": "Västra Götaland"
    },
    "Status": 1
  },
  {
    "ZipCode": "4507",
    "Id": "01H98F4FHQBTPSJ1JMKK3W08F5",
    "Name": "Zoombox",
    "Location": { "Latitude": 14.5706006, "Longitude": 121.0052221 },
    "Address": {
      "Street": "5 Pawling Point",
      "Ward": "Ward 5",
      "City": "Sagrada Familia"
    },
    "Status": 1
  },
  {
    "ZipCode": "427060",
    "Id": "01H98F4FJ03A85W7MMRNGE4B6P",
    "Name": "Realcube",
    "Location": { "Latitude": 57.652547, "Longitude": 53.8103933 },
    "Address": {
      "Street": "49518 Anniversary Road",
      "Ward": "Ward 4",
      "City": "Debesy"
    },
    "Status": 0
  },
  {
    "ZipCode": "91948 CEDEX",
    "Id": "01H98F4FJ14SGJGDND5W4KY1BP",
    "Name": "Buzzshare",
    "Location": { "Latitude": 48.695223, "Longitude": 2.190167 },
    "Address": {
      "Street": "00 Burrows Court",
      "Ward": "Ward 5",
      "City": "Courtaboeuf",
      "Province": "Île-de-France",
      "ZipCode": "26120"
    },
    "Status": 1
  },
  {
    "ZipCode": "142308",
    "Id": "01H98F4FJ2RHKNZEW7H7VQAJRM",
    "Name": "Dabjam",
    "Location": { "Latitude": 55.1653099, "Longitude": 37.6076437 },
    "Address": {
      "Street": "6040 Packers Terrace",
      "Ward": "Ward 3",
      "City": "Chekhov"
    },
    "Status": 0
  },
  {
    "ZipCode": "9317",
    "Id": "01H98F4FJ4H7H6NAC3EVGMGDX6",
    "Name": "Dablist",
    "Location": { "Latitude": 16.0406339, "Longitude": 120.5903599 },
    "Address": {
      "Street": "86109 Mandrake Parkway",
      "Ward": "Ward 2",
      "City": "Puncan"
    },
    "Status": 1
  },
  {
    "ZipCode": "15600",
    "Id": "01H98F4FJ5YWTE9BPSF85W1VV0",
    "Name": "Skilith",
    "Location": { "Latitude": 28.1732341, "Longitude": 68.0179319 },
    "Address": {
      "Street": "59 Oakridge Place",
      "Ward": "Ward 5",
      "City": "Alīābad",
      "ZipCode": "11130"
    },
    "Status": 1
  },
  {
    "ZipCode": "999-0436",
    "Id": "01H98F4FJ7CKX3XW84YAFYQDC3",
    "Name": "Nlounge",
    "Location": { "Latitude": 37.9058553, "Longitude": 139.8418907 },
    "Address": {
      "Street": "97865 Maywood Center",
      "Ward": "Ward 3",
      "City": "Iwakura"
    },
    "Status": 1
  },
  {
    "ZipCode": "747 91",
    "Id": "01H98F4FJFSTBNFJ26WYHE5FGR",
    "Name": "Browsedrive",
    "Location": { "Latitude": 49.9146804, "Longitude": 18.0123649 },
    "Address": {
      "Street": "0 Swallow Terrace",
      "Ward": "Ward 3",
      "City": "Štítina"
    },
    "Status": 0
  },
  {
    "ZipCode": "18130-000",
    "Id": "01H98F4FJJ4ZXS6D7C6K6WJ22E",
    "Name": "Youfeed",
    "Location": { "Latitude": -23.5257248, "Longitude": -47.1322342 },
    "Address": {
      "Street": "57330 Northwestern Junction",
      "Ward": "Trường Thạnh",
      "City": "São Roque"
    },
    "Status": 0
  },
  {
    "ZipCode": "93900-000",
    "Id": "01H98F4FJNN7YRT99TRM45WK1Z",
    "Name": "Brainbox",
    "Location": { "Latitude": -29.5795648, "Longitude": -51.1689963 },
    "Address": {
      "Street": "3903 Westridge Hill",
      "Ward": "Trường Thạnh",
      "City": "Ivoti"
    },
    "Status": 0
  },
  {
    "ZipCode": "4274",
    "Id": "01H98F4FJPSM28M3HY14V21J0D",
    "Name": "Dabtype",
    "Location": { "Latitude": 46.4232734, "Longitude": 14.1113375 },
    "Address": {
      "Street": "77091 Warrior Hill",
      "Ward": "Ward 2",
      "City": "Koroška Bela",
      "ZipCode": "6344"
    },
    "Status": 1
  },
  {
    "ZipCode": "34-125",
    "Id": "01H98F4FJQ66YVKWGD012FXDMA",
    "Name": "Oyope",
    "Location": { "Latitude": 49.8151822, "Longitude": 19.3771749 },
    "Address": {
      "Street": "1251 Kenwood Plaza",
      "Ward": "Ward 3",
      "City": "Zagórnik",
      "ZipCode": "93584"
    },
    "Status": 0
  },
  {
    "ZipCode": "25130",
    "Id": "01H98F4FJREXBQHR1T550157KJ",
    "Name": "Brightdog",
    "Location": { "Latitude": 60.3496505, "Longitude": 23.2799707 },
    "Address": {
      "Street": "3 Fairfield Junction",
      "Ward": "Trường Thạnh",
      "City": "Muurla"
    },
    "Status": 1
  },
  {
    "ZipCode": "429720",
    "Id": "01H98F4FJTQXCAPP73EQM6CDDB",
    "Name": "Dazzlesphere",
    "Location": { "Latitude": 55.195577, "Longitude": 47.0592319 },
    "Address": {
      "Street": "034 Esch Street",
      "Ward": "Trường Thạnh",
      "City": "Buinsk",
      "ZipCode": "1804"
    },
    "Status": 0
  },
  {
    "ZipCode": "43110",
    "Id": "01H98F4FJV2TCWPX7PYA3NZYPH",
    "Name": "Plambee",
    "Location": { "Latitude": 17.8064459, "Longitude": 102.5527505 },
    "Address": {
      "Street": "0 Riverside Trail",
      "Ward": "Ward 5",
      "City": "Tha Bo",
      "ZipCode": "62606"
    },
    "Status": 0
  },
  {
    "ZipCode": "664 61",
    "Id": "01H98F4FJZTARMGD5CAM5DDF2Q",
    "Name": "Eimbee",
    "Location": { "Latitude": 49.090211, "Longitude": 16.6038816 },
    "Address": {
      "Street": "9507 Graedel Way",
      "Ward": "Ward 4",
      "City": "Rajhrad",
      "ZipCode": "2821"
    },
    "Status": 0
  },
  {
    "ZipCode": "1239",
    "Id": "01H98F4FK3YSVH7TJ8XTNZHFP5",
    "Name": "Voomm",
    "Location": { "Latitude": 40.9900603, "Longitude": 21.4193769 },
    "Address": {
      "Street": "24203 Lakeland Center",
      "Ward": "Ward 3",
      "City": "Centar Župa",
      "ZipCode": "69850-000"
    },
    "Status": 0
  },
  {
    "ZipCode": "58-111",
    "Id": "01H98F4FK4NX4MDVJA5095PGZ3",
    "Name": "Edgeify",
    "Location": { "Latitude": 49.94912, "Longitude": 18.4033 },
    "Address": {
      "Street": "137 Vermont Plaza",
      "Ward": "Trường Thạnh",
      "City": "Gorzyczki"
    },
    "Status": 0
  },
  {
    "ZipCode": "195047",
    "Id": "01H98F4FK5QQRH1CRTAR7HQ3ZW",
    "Name": "Vipe",
    "Location": { "Latitude": 1.683061, "Longitude": -77.072933 },
    "Address": {
      "Street": "68794 Eggendart Lane",
      "Ward": "Ward 4",
      "City": "Florencia"
    },
    "Status": 0
  },
  {
    "ZipCode": "5212",
    "Id": "01H98F4FK7E3GF022QS709JRDP",
    "Name": "Meembee",
    "Location": { "Latitude": -37.9973752, "Longitude": -57.5825246 },
    "Address": {
      "Street": "19986 Elmside Hill",
      "Ward": "Trường Thạnh",
      "City": "Avellaneda"
    },
    "Status": 0
  },
  {
    "ZipCode": "446154",
    "Id": "01H98F4FK81VCDMQZ6HF59FD0W",
    "Name": "Cogidoo",
    "Location": { "Latitude": 52.6653765, "Longitude": 49.7198694 },
    "Address": {
      "Street": "52 Beilfuss Terrace",
      "Ward": "Ward 4",
      "City": "Pavlovka",
      "ZipCode": "48970-000"
    },
    "Status": 0
  },
  {
    "ZipCode": "32575",
    "Id": "01H98F4FKD6JX4SF12WG308PJ6",
    "Name": "Babblestorm",
    "Location": { "Latitude": 30.475663, "Longitude": -87.193563 },
    "Address": {
      "Street": "884 Myrtle Place",
      "Ward": "Trường Thạnh",
      "City": "Pensacola",
      "Province": "Florida",
      "ZipCode": "176048"
    },
    "Status": 0
  },
  {
    "ZipCode": "3053",
    "Id": "01H98F4FKE5H3YM5XQV9EB55ZR",
    "Name": "Trupe",
    "Location": { "Latitude": 43.2625974, "Longitude": 23.6556259 },
    "Address": {
      "Street": "53 Prentice Way",
      "Ward": "Ward 2",
      "City": "Vratsa",
      "ZipCode": "5607"
    },
    "Status": 1
  },
  {
    "ZipCode": "142970",
    "Id": "01H98F4FKGNP97M5H1JZ1BRM23",
    "Name": "Topdrive",
    "Location": { "Latitude": 54.4691259, "Longitude": 38.7201031 },
    "Address": {
      "Street": "2 Prairieview Park",
      "Ward": "Trường Thạnh",
      "City": "Serebryanyye Prudy",
      "ZipCode": "90305"
    },
    "Status": 0
  },
  {
    "ZipCode": "38-340",
    "Id": "01H98F4FKNCTHCRVTB34MGF66R",
    "Name": "Jamia",
    "Location": { "Latitude": 49.73554, "Longitude": 21.26331 },
    "Address": {
      "Street": "0835 Morning Pass",
      "Ward": "Ward 5",
      "City": "Biecz"
    },
    "Status": 0
  },
  {
    "ZipCode": "G8K",
    "Id": "01H98F4FKPK01V2RZW23XGRWNF",
    "Name": "Brightbean",
    "Location": { "Latitude": 48.6513092, "Longitude": -72.4519727 },
    "Address": {
      "Street": "6871 Fisk Point",
      "Ward": "Ward 4",
      "City": "Saint-Félicien",
      "Province": "Québec"
    },
    "Status": 1
  },
  {
    "ZipCode": "7214",
    "Id": "01H98F4FKRM6ZG7FRHMYXY23AM",
    "Name": "Tanoodle",
    "Location": { "Latitude": 10.3570129, "Longitude": 123.9839638 },
    "Address": {
      "Street": "0 Crest Line Way",
      "Ward": "Trường Thạnh",
      "City": "Bagakay"
    },
    "Status": 0
  },
  {
    "ZipCode": "32128",
    "Id": "01H98F4FKTG8ZPNK188QRJ87ZC",
    "Name": "Babbleopia",
    "Location": { "Latitude": 29.084946, "Longitude": -81.0644263 },
    "Address": {
      "Street": "51 Carberry Point",
      "Ward": "Ward 3",
      "City": "Daytona Beach",
      "Province": "Florida"
    },
    "Status": 1
  },
  {
    "ZipCode": "10600",
    "Id": "01H98F4FKVFTVS7W2EZFZ6CYQV",
    "Name": "Trupe",
    "Location": { "Latitude": 6.9280156, "Longitude": 79.8908308 },
    "Address": {
      "Street": "0748 Hollow Ridge Plaza",
      "Ward": "Ward 3",
      "City": "Battaramulla South"
    },
    "Status": 0
  },
  {
    "ZipCode": "78304 CEDEX",
    "Id": "01H98F4FKX9HTQR043W3CJHYT2",
    "Name": "Mudo",
    "Location": { "Latitude": 48.9330384, "Longitude": 2.0412764 },
    "Address": {
      "Street": "91 Main Crossing",
      "Ward": "Ward 3",
      "City": "Poissy",
      "Province": "Île-de-France",
      "ZipCode": "78682"
    },
    "Status": 1
  },
  {
    "ZipCode": "052027",
    "Id": "01H98F4FKYHMSJPH6V7D7N2PBG",
    "Name": "Meevee",
    "Location": { "Latitude": 6.979498, "Longitude": -75.2966019 },
    "Address": {
      "Street": "407 Commercial Place",
      "Ward": "Ward 2",
      "City": "Campamento",
      "ZipCode": "45218"
    },
    "Status": 1
  },
  {
    "ZipCode": "38-112",
    "Id": "01H98F4FM48FF1DCH34PDPQZCR",
    "Name": "Gigashots",
    "Location": { "Latitude": 49.8501369, "Longitude": 21.894173 },
    "Address": {
      "Street": "9 Tomscot Junction",
      "Ward": "Ward 5",
      "City": "Jawornik"
    },
    "Status": 1
  },
  {
    "ZipCode": "1590",
    "Id": "01H98F4FM5BNAP24M7GJZCXQ5N",
    "Name": "Devify",
    "Location": { "Latitude": -26.360436, "Longitude": 28.451357 },
    "Address": {
      "Street": "025 Springview Circle",
      "Ward": "Trường Thạnh",
      "City": "Nigel"
    },
    "Status": 1
  },
  {
    "ZipCode": "665442",
    "Id": "01H98F4FM607D7HD5TC05C8QF8",
    "Name": "BlogXS",
    "Location": { "Latitude": 55.87784, "Longitude": 38.95423 },
    "Address": {
      "Street": "03 Eliot Court",
      "Ward": "Ward 5",
      "City": "Malaya Dubna",
      "ZipCode": "8045"
    },
    "Status": 1
  },
  {
    "ZipCode": "79503",
    "Id": "01H98F4FMASB7A2GMWZQTYDNMV",
    "Name": "Twiyo",
    "Location": { "Latitude": 1.4190683, "Longitude": 103.652859 },
    "Address": {
      "Street": "70580 Shopko Hill",
      "Ward": "Ward 5",
      "City": "Nusajaya",
      "Province": "Johor"
    },
    "Status": 1
  },
  {
    "ZipCode": "7541",
    "Id": "01H98F4FMCGNNSRA4QXCFZFXHZ",
    "Name": "Camimbo",
    "Location": { "Latitude": 41.6338439, "Longitude": 25.3777119 },
    "Address": {
      "Street": "0 Westport Alley",
      "Ward": "Ward 4",
      "City": "Kaynardzha"
    },
    "Status": 1
  },
  {
    "ZipCode": "J4B",
    "Id": "01H98F4FMD887BFF3BJM6D9AF7",
    "Name": "Blogtags",
    "Location": { "Latitude": 45.5833482, "Longitude": -73.4372336 },
    "Address": {
      "Street": "81 Messerschmidt Point",
      "Ward": "Trường Thạnh",
      "City": "Boucherville",
      "Province": "Québec",
      "ZipCode": "37464-000"
    },
    "Status": 1
  },
  {
    "ZipCode": "63304 CEDEX",
    "Id": "01H98F4FMKKFKB8Z1SENFZ0V25",
    "Name": "Twitterwire",
    "Location": { "Latitude": 45.85029, "Longitude": 3.53936 },
    "Address": {
      "Street": "30 Shasta Road",
      "Ward": "Ward 2",
      "City": "Thiers",
      "Province": "Auvergne"
    },
    "Status": 0
  },
  {
    "ZipCode": "8038",
    "Id": "01H98F4FMVWQTMKJCGVEKTPZZ9",
    "Name": "Yozio",
    "Location": { "Latitude": 67.278155, "Longitude": 14.4159346 },
    "Address": {
      "Street": "0 Bellgrove Park",
      "Ward": "Ward 5",
      "City": "Bodø",
      "Province": "Nordland",
      "ZipCode": "3700-732"
    },
    "Status": 1
  },
  {
    "ZipCode": "K2H",
    "Id": "01H98F4FN04ATZ3D8DJTS0ACBH",
    "Name": "Trilia",
    "Location": { "Latitude": 49.11654, "Longitude": -117.55222 },
    "Address": {
      "Street": "670 Bluejay Avenue",
      "Ward": "Ward 3",
      "City": "Fruitvale",
      "Province": "British Columbia",
      "ZipCode": "242760"
    },
    "Status": 1
  },
  {
    "ZipCode": "624214",
    "Id": "01H98F4FN2NZ4MVTANMQZWT924",
    "Name": "Rhynyx",
    "Location": { "Latitude": 58.6922, "Longitude": 59.832 },
    "Address": {
      "Street": "9 Golf Course Terrace",
      "Ward": "Ward 2",
      "City": "Yëlkino",
      "ZipCode": "1950"
    },
    "Status": 1
  },
  {
    "ZipCode": "AD300",
    "Id": "01H98F4FN5KAF2E3YXN221SKXV",
    "Name": "Meejo",
    "Location": { "Latitude": 42.5556547, "Longitude": 1.5330732 },
    "Address": {
      "Street": "25590 Paget Place",
      "Ward": "Ward 3",
      "City": "Ordino"
    },
    "Status": 1
  },
  {
    "ZipCode": "682038",
    "Id": "01H98F4FNA0PFV10ZP8FF238MH",
    "Name": "Realfire",
    "Location": { "Latitude": 6.6242047, "Longitude": -72.7924612 },
    "Address": {
      "Street": "08907 Loftsgordon Avenue",
      "Ward": "Ward 4",
      "City": "Molagavita",
      "ZipCode": "633130"
    },
    "Status": 0
  },
  {
    "ZipCode": "696 81",
    "Id": "01H98F4FNCBT5PM808287H3H2Y",
    "Name": "Oyoloo",
    "Location": { "Latitude": 48.9486344, "Longitude": 17.2848785 },
    "Address": {
      "Street": "5376 Little Fleur Place",
      "Ward": "Ward 2",
      "City": "Bzenec",
      "ZipCode": "5461"
    },
    "Status": 0
  },
  {
    "ZipCode": "142817",
    "Id": "01H98F4FNEBYDP3BNV53V9JE7H",
    "Name": "Twitternation",
    "Location": { "Latitude": 55.658365, "Longitude": 37.615691 },
    "Address": {
      "Street": "5 Sunbrook Trail",
      "Ward": "Ward 3",
      "City": "Nagornyy"
    },
    "Status": 0
  },
  {
    "ZipCode": "300999",
    "Id": "01H98F4FNHGR68HVAT26H9XW7Z",
    "Name": "Roodel",
    "Location": { "Latitude": 54.1649073, "Longitude": 37.5852425 },
    "Address": {
      "Street": "57 Hansons Junction",
      "Ward": "Trường Thạnh",
      "City": "Tula"
    },
    "Status": 1
  },
  {
    "ZipCode": "63700-000",
    "Id": "01H98F4FNJFBH18YC751D9S5TF",
    "Name": "Tekfly",
    "Location": { "Latitude": -5.178204, "Longitude": -40.6695522 },
    "Address": {
      "Street": "94138 Debs Point",
      "Ward": "Ward 2",
      "City": "Crateús",
      "ZipCode": "30629"
    },
    "Status": 0
  },
  {
    "ZipCode": "16200-000",
    "Id": "01H98F4FNPE8YTRZWT3YFM2ZT8",
    "Name": "Zoozzy",
    "Location": { "Latitude": -21.2915055, "Longitude": -50.3436312 },
    "Address": {
      "Street": "80441 Esker Crossing",
      "Ward": "Ward 2",
      "City": "Birigui"
    },
    "Status": 1
  },
  {
    "ZipCode": "368212",
    "Id": "01H98F4FNQ3S99M0414393N4PR",
    "Name": "Oba",
    "Location": { "Latitude": 53.8035238, "Longitude": 86.8634095 },
    "Address": {
      "Street": "498 Vidon Drive",
      "Ward": "Ward 5",
      "City": "Prokop’yevsk",
      "ZipCode": "26-630"
    },
    "Status": 1
  },
  {
    "ZipCode": "V9A",
    "Id": "01H98F4FNS65WVDR955ZP2G9S3",
    "Name": "Twiyo",
    "Location": { "Latitude": 48.4373686, "Longitude": -123.4112839 },
    "Address": {
      "Street": "26008 Cardinal Plaza",
      "Ward": "Ward 4",
      "City": "Victoria",
      "Province": "British Columbia"
    },
    "Status": 1
  },
  {
    "ZipCode": "8303",
    "Id": "01H98F4FNT2D9TVQM5JQ1CD2SX",
    "Name": "JumpXS",
    "Location": { "Latitude": 8.9800511, "Longitude": 126.2545687 },
    "Address": {
      "Street": "756 Southridge Street",
      "Ward": "Ward 2",
      "City": "Bayabas"
    },
    "Status": 0
  },
  {
    "ZipCode": "76140",
    "Id": "01H98F4FNXXWE1086JX2C6H7FY",
    "Name": "Skivee",
    "Location": { "Latitude": 13.2394415, "Longitude": 99.7901781 },
    "Address": {
      "Street": "5 Thackeray Crossing",
      "Ward": "Ward 2",
      "City": "Khao Yoi",
      "ZipCode": "ZTN"
    },
    "Status": 1
  },
  {
    "ZipCode": "8608",
    "Id": "01H98F4FP0E5DDN6ZNGT4JPWXZ",
    "Name": "Yakidoo",
    "Location": { "Latitude": 14.5672317, "Longitude": 121.0298199 },
    "Address": {
      "Street": "8342 Fairfield Street",
      "Ward": "Ward 2",
      "City": "Santiago"
    },
    "Status": 0
  },
  {
    "ZipCode": "573 36",
    "Id": "01H98F4FP1W132DJGZB58CWK9D",
    "Name": "Devshare",
    "Location": { "Latitude": 58.0275087, "Longitude": 15.0052213 },
    "Address": {
      "Street": "6 Kings Parkway",
      "Ward": "Ward 2",
      "City": "Tranås",
      "Province": "Jönköping"
    },
    "Status": 0
  },
  {
    "ZipCode": "10587",
    "Id": "01H98F4FP2J81DJD1XDEM7QDEG",
    "Name": "Oyoloo",
    "Location": { "Latitude": 52.5170826, "Longitude": 13.3236611 },
    "Address": {
      "Street": "06 Pierstorff Trail",
      "Ward": "Trường Thạnh",
      "City": "Berlin",
      "Province": "Berlin"
    },
    "Status": 0
  },
  {
    "ZipCode": "8400-661",
    "Id": "01H98F4FP5KAAGJB7VKRC9TFSG",
    "Name": "Tekfly",
    "Location": { "Latitude": 37.1408036, "Longitude": -8.8622841 },
    "Address": {
      "Street": "9377 Johnson Pass",
      "Ward": "Trường Thạnh",
      "City": "Aldeia da Bela Vista",
      "Province": "Faro",
      "ZipCode": "45922 CEDEX 9"
    },
    "Status": 0
  },
  {
    "ZipCode": "446154",
    "Id": "01H98F4FP7Y04QB6CZ3QY4J4XW",
    "Name": "Zooveo",
    "Location": { "Latitude": 52.6653765, "Longitude": 49.7198694 },
    "Address": {
      "Street": "2 Farwell Avenue",
      "Ward": "Ward 5",
      "City": "Pavlovka"
    },
    "Status": 0
  },
  {
    "ZipCode": "D04",
    "Id": "01H98F4FPA7XXYHEM2X936QND3",
    "Name": "Jabbercube",
    "Location": { "Latitude": 53.3347733, "Longitude": -6.2427004 },
    "Address": {
      "Street": "7 Ridge Oak Crossing",
      "Ward": "Trường Thạnh",
      "City": "Dublin"
    },
    "Status": 1
  },
  {
    "ZipCode": "J3V",
    "Id": "01H98F4FPDTD0S1CRZ5TN543RM",
    "Name": "Rhyloo",
    "Location": { "Latitude": 45.5257774, "Longitude": -73.3436918 },
    "Address": {
      "Street": "2662 Anderson Alley",
      "Ward": "Ward 5",
      "City": "Saint-Bruno-de-Montarville",
      "Province": "Québec"
    },
    "Status": 1
  },
  {
    "ZipCode": "04004",
    "Id": "01H98F4FPF6047SDSEEPXTH3B9",
    "Name": "Vidoo",
    "Location": { "Latitude": 14.7567271, "Longitude": -90.9199977 },
    "Address": {
      "Street": "43038 Sunfield Terrace",
      "Ward": "Ward 3",
      "City": "Comalapa"
    },
    "Status": 1
  },
  {
    "ZipCode": "629405",
    "Id": "01H98F4FPJBB2S6XJFS9XJBK51",
    "Name": "Blognation",
    "Location": { "Latitude": 66.6557632, "Longitude": 66.3898319 },
    "Address": {
      "Street": "5 Shoshone Alley",
      "Ward": "Ward 4",
      "City": "Labytnangi",
      "ZipCode": "3220"
    },
    "Status": 0
  },
  {
    "ZipCode": "2317",
    "Id": "01H98F4FPMB5Z0T444D4AD3N97",
    "Name": "Vitz",
    "Location": { "Latitude": 7.01806, "Longitude": 124.18056 },
    "Address": {
      "Street": "694 Northport Place",
      "Ward": "Trường Thạnh",
      "City": "Blinsung"
    },
    "Status": 0
  },
  {
    "ZipCode": "3837",
    "Id": "01H98F4FPQM01P0XBW9W64Y7JS",
    "Name": "Wordpedia",
    "Location": { "Latitude": -26.0440358, "Longitude": 28.1574467 },
    "Address": {
      "Street": "67995 Meadow Valley Junction",
      "Ward": "Ward 2",
      "City": "Bhisho",
      "ZipCode": "3105-378"
    },
    "Status": 0
  },
  {
    "ZipCode": "446017",
    "Id": "01H98F4FPTB4N5ZEY6KEKRKD1A",
    "Name": "Meedoo",
    "Location": { "Latitude": 11.2428856, "Longitude": -73.4062342 },
    "Address": {
      "Street": "24 Pennsylvania Junction",
      "Ward": "Trường Thạnh",
      "City": "Dibulla",
      "ZipCode": "22-604"
    },
    "Status": 0
  },
  {
    "ZipCode": "3332",
    "Id": "01H98F4FPX2Z5SF0966WMVCHYV",
    "Name": "Twitterworks",
    "Location": { "Latitude": 7.1650433, "Longitude": 124.8772813 },
    "Address": {
      "Street": "2780 Porter Plaza",
      "Ward": "Ward 5",
      "City": "Kulaman"
    },
    "Status": 0
  },
  {
    "ZipCode": "669-5313",
    "Id": "01H98F4FPZ6BEC2FJ47GEXSJK0",
    "Name": "Bubblemix",
    "Location": { "Latitude": 35.4693091, "Longitude": 134.7938651 },
    "Address": {
      "Street": "9 Macpherson Point",
      "Ward": "Ward 3",
      "City": "Tsuruoka",
      "ZipCode": "84147 CEDEX"
    },
    "Status": 1
  },
  {
    "ZipCode": "172460",
    "Id": "01H98F4FQ0F8BKRVG0TP263END",
    "Name": "Realpoint",
    "Location": { "Latitude": 55.8502008, "Longitude": 32.2633061 },
    "Address": {
      "Street": "91 Messerschmidt Hill",
      "Ward": "Ward 4",
      "City": "Zharkovskiy",
      "ZipCode": "76200-000"
    },
    "Status": 0
  },
  {
    "ZipCode": "547079",
    "Id": "01H98F4FQ3RBFEG0EASMCTQF3Q",
    "Name": "Jetpulse",
    "Location": { "Latitude": 8.50874, "Longitude": -73.4488 },
    "Address": {
      "Street": "6 Grasskamp Junction",
      "Ward": "Ward 3",
      "City": "El Carmen",
      "ZipCode": "779-0311"
    },
    "Status": 1
  },
  {
    "ZipCode": "111711",
    "Id": "01H98F4FQ7QYEG2Z4B4Y4NC2T2",
    "Name": "Babbleset",
    "Location": { "Latitude": 4.5943745, "Longitude": -74.0740729 },
    "Address": {
      "Street": "16 Linden Point",
      "Ward": "Ward 4",
      "City": "Candelaria"
    },
    "Status": 0
  },
  {
    "ZipCode": "8088",
    "Id": "01H98F4FQ9ASDW8PHRXSKXJ634",
    "Name": "Yambee",
    "Location": { "Latitude": 47.3774041, "Longitude": 8.5113801 },
    "Address": {
      "Street": "75557 Utah Trail",
      "Ward": "Ward 3",
      "City": "Zürich",
      "Province": "Kanton Zürich"
    },
    "Status": 0
  },
  {
    "ZipCode": "9615",
    "Id": "01H98F4FQAPP9GKF3457Q7SHPW",
    "Name": "Trudoo",
    "Location": { "Latitude": 7.5166669, "Longitude": 124.3666687 },
    "Address": {
      "Street": "408 Sheridan Avenue",
      "Ward": "Ward 4",
      "City": "Mataya"
    },
    "Status": 0
  },
  {
    "ZipCode": "673613",
    "Id": "01H98F4FQCZG2PSB50B20ASN9J",
    "Name": "Roomm",
    "Location": { "Latitude": 51.3035449, "Longitude": 117.8793825 },
    "Address": {
      "Street": "5 Clarendon Alley",
      "Ward": "Ward 2",
      "City": "Vershino-Shakhtaminskiy",
      "ZipCode": "7250"
    },
    "Status": 1
  },
  {
    "ZipCode": "22-650",
    "Id": "01H98F4FQED9QKA6V30J16XM75",
    "Name": "Realcube",
    "Location": { "Latitude": 50.5332417, "Longitude": 23.7255557 },
    "Address": {
      "Street": "330 Sutherland Court",
      "Ward": "Ward 2",
      "City": "Łaszczów",
      "ZipCode": "72404 CEDEX"
    },
    "Status": 0
  },
  {
    "ZipCode": "929-1576",
    "Id": "01H98F4FQFGV4NV0XASYEP3JY7",
    "Name": "Voomm",
    "Location": { "Latitude": 36.9382393, "Longitude": 136.8170714 },
    "Address": {
      "Street": "96 Luster Trail",
      "Ward": "Ward 3",
      "City": "Hakui",
      "ZipCode": "28009 CEDEX"
    },
    "Status": 1
  },
  {
    "ZipCode": "89105",
    "Id": "01H98F4FQG9BBYJAYN543RYF3Z",
    "Name": "Thoughtblab",
    "Location": { "Latitude": 35.99, "Longitude": -115.09 },
    "Address": {
      "Street": "99422 Troy Court",
      "Ward": "Ward 5",
      "City": "Las Vegas",
      "Province": "Nevada",
      "ZipCode": "33010 CEDEX"
    },
    "Status": 0
  },
  {
    "ZipCode": "968-0442",
    "Id": "01H98F4FQKB7907SC78N51RE2Y",
    "Name": "Quire",
    "Location": { "Latitude": 37.3032401, "Longitude": 139.3751118 },
    "Address": {
      "Street": "8 Graceland Parkway",
      "Ward": "Ward 2",
      "City": "Nagahama"
    },
    "Status": 0
  },
  {
    "ZipCode": "5017",
    "Id": "01H98F4FQM9D1KTS57FPKQRK93",
    "Name": "Blogpad",
    "Location": { "Latitude": 11.4693878, "Longitude": 123.1476046 },
    "Address": {
      "Street": "077 Sommers Plaza",
      "Ward": "Ward 3",
      "City": "Estancia"
    },
    "Status": 0
  },
  {
    "ZipCode": "14470-000",
    "Id": "01H98F4FQP0PWQ2NCW2A22W3SK",
    "Name": "Brightbean",
    "Location": { "Latitude": -20.2562227, "Longitude": -47.4810384 },
    "Address": {
      "Street": "47418 Kinsman Plaza",
      "Ward": "Trường Thạnh",
      "City": "Pedregulho"
    },
    "Status": 1
  },
  {
    "ZipCode": "4730-264",
    "Id": "01H98F4FQRZJPP69C0Z59KACFD",
    "Name": "Vidoo",
    "Location": { "Latitude": 41.6714042, "Longitude": -8.410695 },
    "Address": {
      "Street": "63 Harper Trail",
      "Ward": "Ward 2",
      "City": "Lanhas",
      "Province": "Braga",
      "ZipCode": "D6W"
    },
    "Status": 1
  },
  {
    "ZipCode": "152047",
    "Id": "01H98F4FQW9G2S85PEV0NNHC2C",
    "Name": "Brainbox",
    "Location": { "Latitude": 5.768717, "Longitude": -72.831906 },
    "Address": {
      "Street": "99272 Dahle Street",
      "Ward": "Ward 4",
      "City": "Tópaga"
    },
    "Status": 1
  },
  {
    "ZipCode": "763547",
    "Id": "01H98F4FRB1VT1869A9EDBD70T",
    "Name": "Avavee",
    "Location": { "Latitude": 3.5737543, "Longitude": -76.01598 },
    "Address": {
      "Street": "0 Clarendon Hill",
      "Ward": "Trường Thạnh",
      "City": "Palmira",
      "ZipCode": "999-7754"
    },
    "Status": 1
  },
  {
    "ZipCode": "7319",
    "Id": "01H98F4FRCBG3WGQ8ZT5WFK9ZT",
    "Name": "Demivee",
    "Location": { "Latitude": 43.7728532, "Longitude": 26.5290794 },
    "Address": {
      "Street": "88716 Bluejay Road",
      "Ward": "Ward 4",
      "City": "Medovene",
      "ZipCode": "70211"
    },
    "Status": 0
  },
  {
    "ZipCode": "386250",
    "Id": "01H98F4FRGFHV3GE52TQX5MHPA",
    "Name": "Gevee",
    "Location": { "Latitude": 43.2374865, "Longitude": 45.0503473 },
    "Address": {
      "Street": "03 Mosinee Avenue",
      "Ward": "Ward 2",
      "City": "Nesterovskaya"
    },
    "Status": 0
  },
  {
    "ZipCode": "36-047",
    "Id": "01H98F4FRHDJSTH4E2XSKXEVF8",
    "Name": "Mudo",
    "Location": { "Latitude": 50.0028883, "Longitude": 21.8964008 },
    "Address": {
      "Street": "97 Dixon Pass",
      "Ward": "Ward 4",
      "City": "Lutoryż",
      "ZipCode": "K34"
    },
    "Status": 0
  },
  {
    "ZipCode": "445359",
    "Id": "01H98F4FRJPWDE13WHDWAZRRR0",
    "Name": "Tanoodle",
    "Location": { "Latitude": 53.3797233, "Longitude": 49.5564219 },
    "Address": {
      "Street": "94 Commercial Street",
      "Ward": "Ward 3",
      "City": "Zhigulevsk"
    },
    "Status": 0
  },
  {
    "ZipCode": "36005",
    "Id": "01H98F4FRMRP19DYC3YNE43R69",
    "Name": "Edgetag",
    "Location": { "Latitude": 42.4423768, "Longitude": -8.6463086 },
    "Address": {
      "Street": "83 Burning Wood Road",
      "Ward": "Ward 4",
      "City": "Pontevedra",
      "Province": "Galicia"
    },
    "Status": 1
  },
  {
    "ZipCode": "09700-000",
    "Id": "01H98F4FRP2NY1RJQTXF2SPBVQ",
    "Name": "Meedoo",
    "Location": { "Latitude": -23.6898429, "Longitude": -46.5648481 },
    "Address": {
      "Street": "21 Hollow Ridge Crossing",
      "Ward": "Ward 5",
      "City": "São Bernardo do Campo"
    },
    "Status": 1
  },
  {
    "ZipCode": "671 07",
    "Id": "01H98F4FRRS5W9BS1HPZRJ51ZV",
    "Name": "Podcat",
    "Location": { "Latitude": 48.9410561, "Longitude": 15.6896923 },
    "Address": {
      "Street": "551 Longview Park",
      "Ward": "Ward 3",
      "City": "Vysočany",
      "ZipCode": "8424"
    },
    "Status": 1
  },
  {
    "ZipCode": "41703",
    "Id": "01H98F4FRSN22G31MH1R8ZMFJ7",
    "Name": "Eayo",
    "Location": { "Latitude": 37.3100775, "Longitude": -5.9647536 },
    "Address": {
      "Street": "6648 Norway Maple Plaza",
      "Ward": "Ward 4",
      "City": "Dos Hermanas",
      "Province": "Andalucia",
      "ZipCode": "2380-159"
    },
    "Status": 1
  },
  {
    "ZipCode": "5105",
    "Id": "01H98F4FRWB7APG9342ZCTYHEZ",
    "Name": "Eimbee",
    "Location": { "Latitude": 14.7793575, "Longitude": 121.0489884 },
    "Address": {
      "Street": "294 Logan Parkway",
      "Ward": "Trường Thạnh",
      "City": "Bagombong",
      "ZipCode": "13460-000"
    },
    "Status": 1
  },
  {
    "ZipCode": "98104",
    "Id": "01H98F4FRXK0HA8EC1H34YCPX6",
    "Name": "Tagpad",
    "Location": { "Latitude": 47.6015566, "Longitude": -122.3323351 },
    "Address": {
      "Street": "62 Riverside Park",
      "Ward": "Ward 5",
      "City": "Seattle",
      "Province": "Washington",
      "ZipCode": "58928-000"
    },
    "Status": 0
  },
  {
    "ZipCode": "9505",
    "Id": "01H98F4FS3W7P8C5Q4MP1SYBM2",
    "Name": "Rhynyx",
    "Location": { "Latitude": 15.04538, "Longitude": 120.671684 },
    "Address": {
      "Street": "21 Cordelia Place",
      "Ward": "Ward 2",
      "City": "Kabalen"
    },
    "Status": 1
  },
  {
    "ZipCode": "40612",
    "Id": "01H98F4FS46T8EYZ28PS8W0SE9",
    "Name": "Gigabox",
    "Location": { "Latitude": 3.0100681, "Longitude": 101.5326734 },
    "Address": {
      "Street": "77902 Bonner Court",
      "Ward": "Ward 2",
      "City": "Shah Alam",
      "Province": "Selangor"
    },
    "Status": 0
  },
  {
    "ZipCode": "10508",
    "Id": "01H98F4FS4J46EQRK85ZG0CG7F",
    "Name": "Twiyo",
    "Location": { "Latitude": 19.309169, "Longitude": -70.6977162 },
    "Address": {
      "Street": "3682 Pierstorff Plaza",
      "Ward": "Ward 5",
      "City": "Baitoa"
    },
    "Status": 0
  },
  {
    "ZipCode": "51950",
    "Id": "01H98F4FS5XANHJBSTH1KK1M2Y",
    "Name": "Dynabox",
    "Location": { "Latitude": 19.782027, "Longitude": -99.0598732 },
    "Address": {
      "Street": "873 Iowa Road",
      "Ward": "Ward 3",
      "City": "San Sebastian",
      "Province": "Mexico"
    },
    "Status": 0
  },
  {
    "ZipCode": "4332",
    "Id": "01H98F4FS7C11DPXB3NT5ZSD25",
    "Name": "Twitternation",
    "Location": { "Latitude": 15.5518829, "Longitude": 120.7822013 },
    "Address": {
      "Street": "25 Elka Alley",
      "Ward": "Ward 5",
      "City": "San Casimiro"
    },
    "Status": 0
  },
  {
    "ZipCode": "641 47",
    "Id": "01H98F4FS866T60ZX2W860QM2V",
    "Name": "Feedfish",
    "Location": { "Latitude": 59.0110968, "Longitude": 16.2239747 },
    "Address": {
      "Street": "00274 Porter Place",
      "Ward": "Trường Thạnh",
      "City": "Katrineholm",
      "Province": "Södermanland"
    },
    "Status": 1
  },
  {
    "ZipCode": "409-3841",
    "Id": "01H98F4FSBFN260AXK1E8JWN4M",
    "Name": "Gabtype",
    "Location": { "Latitude": 35.649152, "Longitude": 138.5884549 },
    "Address": {
      "Street": "51 Gerald Circle",
      "Ward": "Ward 5",
      "City": "Kōfu-shi",
      "ZipCode": "5430-236"
    },
    "Status": 1
  },
  {
    "ZipCode": "4600-596",
    "Id": "01H98F4FSFHSE2Y545FKKYHP9Z",
    "Name": "Oyoyo",
    "Location": { "Latitude": 41.2499754, "Longitude": -7.9522855 },
    "Address": {
      "Street": "17 Holy Cross Lane",
      "Ward": "Trường Thạnh",
      "City": "Eido",
      "Province": "Porto"
    },
    "Status": 1
  },
  {
    "ZipCode": "95833",
    "Id": "01H98F4FSGZ1QBPHMECV6FM7BM",
    "Name": "Plajo",
    "Location": { "Latitude": 38.6198298, "Longitude": -121.5198716 },
    "Address": {
      "Street": "68039 Dorton Parkway",
      "Ward": "Trường Thạnh",
      "City": "Sacramento",
      "Province": "California"
    },
    "Status": 0
  },
  {
    "ZipCode": "641500",
    "Id": "01H98F4FSKAMQSJWEQQFYEPZB5",
    "Name": "Fliptune",
    "Location": { "Latitude": 55.2708406, "Longitude": 66.4858701 },
    "Address": {
      "Street": "01779 Rutledge Hill",
      "Ward": "Ward 5",
      "City": "Lebyazh’ye"
    },
    "Status": 0
  },
  {
    "ZipCode": "31110",
    "Id": "01H98F4FSNFVMWG6MTTXF17P1P",
    "Name": "Brightdog",
    "Location": { "Latitude": 14.6316265, "Longitude": 102.7594847 },
    "Address": {
      "Street": "692 Golden Leaf Alley",
      "Ward": "Ward 2",
      "City": "Nakhon Ratchasima",
      "ZipCode": "35600-000"
    },
    "Status": 0
  },
  {
    "ZipCode": "39180",
    "Id": "01H98F4FSQFXKZ1EX5WZY4Y38N",
    "Name": "Jaxworks",
    "Location": { "Latitude": 31.4867981, "Longitude": 73.8207154 },
    "Address": {
      "Street": "414 New Castle Avenue",
      "Ward": "Ward 5",
      "City": "Warburton"
    },
    "Status": 1
  },
  {
    "ZipCode": "301 10",
    "Id": "01H98F4FSRMC5ADVMQNHTJ411G",
    "Name": "Meevee",
    "Location": { "Latitude": 56.6810923, "Longitude": 12.8148182 },
    "Address": {
      "Street": "0874 Glendale Terrace",
      "Ward": "Ward 5",
      "City": "Halmstad",
      "Province": "Halland",
      "ZipCode": "4211"
    },
    "Status": 0
  },
  {
    "ZipCode": "271 37",
    "Id": "01H98F4FSS7FRTGXSSE3W38CZ4",
    "Name": "Ntags",
    "Location": { "Latitude": 55.4426515, "Longitude": 13.8117207 },
    "Address": {
      "Street": "2 Raven Road",
      "Ward": "Ward 4",
      "City": "Ystad",
      "Province": "Skåne",
      "ZipCode": "397474"
    },
    "Status": 1
  },
  {
    "ZipCode": "10045",
    "Id": "01H98F4FSWSNBAHHJD12C8KY1H",
    "Name": "Izio",
    "Location": { "Latitude": 40.708873, "Longitude": -74.0093553 },
    "Address": {
      "Street": "6378 Eggendart Point",
      "Ward": "Trường Thạnh",
      "City": "New York City",
      "Province": "New York",
      "ZipCode": "2170"
    },
    "Status": 0
  },
  {
    "ZipCode": "3119",
    "Id": "01H98F4FSX10N23MJD6ZS6GQY6",
    "Name": "Zoomdog",
    "Location": { "Latitude": 15.5168467, "Longitude": 120.6069565 },
    "Address": { "Street": "92 Grim Road", "Ward": "Ward 3", "City": "Tariji" },
    "Status": 0
  },
  {
    "ZipCode": "442443",
    "Id": "01H98F4FSYNJY1QW98F2J08E5M",
    "Name": "Blogspan",
    "Location": { "Latitude": 52.7112627, "Longitude": 45.4271291 },
    "Address": {
      "Street": "6168 Brown Street",
      "Ward": "Ward 5",
      "City": "Verkhozim"
    },
    "Status": 0
  },
  {
    "ZipCode": "302025",
    "Id": "01H98F4FT3R0WSN0XBB5WF767N",
    "Name": "Oba",
    "Location": { "Latitude": 55.775282, "Longitude": 37.61479 },
    "Address": {
      "Street": "0 Shopko Way",
      "Ward": "Ward 4",
      "City": "Yaroslavl",
      "ZipCode": "4619"
    },
    "Status": 0
  },
  {
    "ZipCode": "N3",
    "Id": "01H98F4FT4J41FXYYBYNAYRJ74",
    "Name": "Chatterbridge",
    "Location": { "Latitude": 51.598282, "Longitude": -0.198414 },
    "Address": {
      "Street": "8 Sheridan Crossing",
      "Ward": "Trường Thạnh",
      "City": "Church End",
      "Province": "England"
    },
    "Status": 0
  },
  {
    "ZipCode": "05-850",
    "Id": "01H98F4FTAFP25H8479CM6VJBW",
    "Name": "Trupe",
    "Location": { "Latitude": 52.1951226, "Longitude": 20.8837885 },
    "Address": {
      "Street": "218 Tony Plaza",
      "Ward": "Trường Thạnh",
      "City": "Ursus",
      "ZipCode": "H1V"
    },
    "Status": 1
  },
  {
    "ZipCode": "62652",
    "Id": "01H98F4FTBWKJ9V1R8B2QZNF1C",
    "Name": "Voonder",
    "Location": { "Latitude": 2.921263, "Longitude": 101.6858965 },
    "Address": {
      "Street": "82738 Village Parkway",
      "Ward": "Trường Thạnh",
      "City": "Putrajaya",
      "Province": "Putrajaya",
      "ZipCode": "32253"
    },
    "Status": 0
  },
  {
    "ZipCode": "186000",
    "Id": "01H98F4FTCK7STFGKQRTWY284D",
    "Name": "Meetz",
    "Location": { "Latitude": 60.9801837, "Longitude": 32.9723968 },
    "Address": {
      "Street": "767 Delladonna Center",
      "Ward": "Ward 4",
      "City": "Olonets",
      "ZipCode": "16201"
    },
    "Status": 0
  },
  {
    "ZipCode": "32-327",
    "Id": "01H98F4FTH1SWBBGSWXD1KN6VN",
    "Name": "Topicware",
    "Location": { "Latitude": 50.186053, "Longitude": 20.598197 },
    "Address": {
      "Street": "5670 Oak Valley Lane",
      "Ward": "Ward 3",
      "City": "Filipowice"
    },
    "Status": 0
  },
  {
    "ZipCode": "839-1344",
    "Id": "01H98F4FTJDH59W84PA18BM86A",
    "Name": "Thoughtbeat",
    "Location": { "Latitude": 33.3437146, "Longitude": 130.6838866 },
    "Address": {
      "Street": "26026 Pepper Wood Avenue",
      "Ward": "Ward 4",
      "City": "Tanushimarumachi-toyoki",
      "ZipCode": "906-0301"
    },
    "Status": 0
  },
  {
    "ZipCode": "309-1127",
    "Id": "01H98F4FTMECXPDTNJ9T1DM2GN",
    "Name": "Zoombox",
    "Location": { "Latitude": 36.304147, "Longitude": 139.978334 },
    "Address": {
      "Street": "85 Veith Parkway",
      "Ward": "Ward 5",
      "City": "Shimodate",
      "ZipCode": "K1Y"
    },
    "Status": 0
  },
  {
    "ZipCode": "682027",
    "Id": "01H98F4FTPC6Q6QEXVG7X07Z6C",
    "Name": "Meevee",
    "Location": { "Latitude": 6.6763591, "Longitude": -72.7628653 },
    "Address": {
      "Street": "0801 Carioca Road",
      "Ward": "Ward 2",
      "City": "Málaga",
      "ZipCode": "462 73"
    },
    "Status": 1
  },
  {
    "ZipCode": "49140-000",
    "Id": "01H98F4FTQQWMTAZW2N2549ZA6",
    "Name": "Yadel",
    "Location": { "Latitude": -10.8512419, "Longitude": -36.970226 },
    "Address": {
      "Street": "5693 Cardinal Center",
      "Ward": "Ward 5",
      "City": "Barra dos Coqueiros"
    },
    "Status": 0
  },
  {
    "ZipCode": "48930",
    "Id": "01H98F4FTT248AQA0476T3K8S5",
    "Name": "Thoughtworks",
    "Location": { "Latitude": 42.7327231, "Longitude": -84.5575089 },
    "Address": {
      "Street": "4357 Becker Street",
      "Ward": "Ward 3",
      "City": "Lansing",
      "Province": "Michigan"
    },
    "Status": 0
  },
  {
    "ZipCode": "7312",
    "Id": "01H98F4FTZP6BN508X6S9YJYCG",
    "Name": "Thoughtbeat",
    "Location": { "Latitude": -33.1519145, "Longitude": 18.6642088 },
    "Address": {
      "Street": "2 Chive Way",
      "Ward": "Ward 3",
      "City": "Moorreesburg"
    },
    "Status": 0
  },
  {
    "ZipCode": "95000-000",
    "Id": "01H98F4FV0TRT8JASDR47WCCM5",
    "Name": "Skidoo",
    "Location": { "Latitude": -29.1556093, "Longitude": -51.1787796 },
    "Address": {
      "Street": "836 Almo Pass",
      "Ward": "Ward 5",
      "City": "Caxias do Sul",
      "ZipCode": "3505"
    },
    "Status": 0
  },
  {
    "ZipCode": "34-432",
    "Id": "01H98F4FV1VNWE2R36TSZ4C17F",
    "Name": "Mynte",
    "Location": { "Latitude": 49.4705944, "Longitude": 20.1323725 },
    "Address": {
      "Street": "58143 Carioca Plaza",
      "Ward": "Trường Thạnh",
      "City": "Łopuszna",
      "ZipCode": "276-0017"
    },
    "Status": 1
  },
  {
    "ZipCode": "671 07",
    "Id": "01H98F4FV5SRB5A2YXH2BDVZMH",
    "Name": "Blogspan",
    "Location": { "Latitude": 48.9410561, "Longitude": 15.6896923 },
    "Address": {
      "Street": "4135 Kipling Hill",
      "Ward": "Trường Thạnh",
      "City": "Vysočany",
      "ZipCode": "083028"
    },
    "Status": 0
  },
  {
    "ZipCode": "94224 CEDEX",
    "Id": "01H98F4FV74RZGWDSZ1R763WFS",
    "Name": "Ooba",
    "Location": { "Latitude": 48.8218211, "Longitude": 2.3999815 },
    "Address": {
      "Street": "205 Eagan Way",
      "Ward": "Ward 4",
      "City": "Charenton-le-Pont",
      "Province": "Île-de-France"
    },
    "Status": 0
  },
  {
    "ZipCode": "45473",
    "Id": "01H98F4FVE8CGEM9XJNSH3C4X2",
    "Name": "Ntag",
    "Location": { "Latitude": 51.441874, "Longitude": 6.886548 },
    "Address": {
      "Street": "79 Bultman Circle",
      "Ward": "Ward 5",
      "City": "Mülheim an der Ruhr",
      "Province": "Nordrhein-Westfalen"
    },
    "Status": 1
  },
  {
    "ZipCode": "10500",
    "Id": "01H98F4FVFFFCFDDWZNV67QBPZ",
    "Name": "Zooveo",
    "Location": { "Latitude": 13.7246078, "Longitude": 100.5148471 },
    "Address": {
      "Street": "37299 Lillian Pass",
      "Ward": "Ward 5",
      "City": "Bang Rak",
      "ZipCode": "4805-081"
    },
    "Status": 1
  },
  {
    "ZipCode": "10140",
    "Id": "01H98F4FVGDXAAW2PW5STZB0SM",
    "Name": "Ailane",
    "Location": { "Latitude": 13.6332855, "Longitude": 100.4958678 },
    "Address": {
      "Street": "7 Harbort Hill",
      "Ward": "Ward 5",
      "City": "Thung Khru",
      "ZipCode": "4343"
    },
    "Status": 1
  },
  {
    "ZipCode": "18500-000",
    "Id": "01H98F4FVP4K0X987RG7RG6FBH",
    "Name": "Npath",
    "Location": { "Latitude": -23.0510503, "Longitude": -47.838004 },
    "Address": {
      "Street": "88 Norway Maple Lane",
      "Ward": "Ward 3",
      "City": "Laranjal Paulista"
    },
    "Status": 0
  },
  {
    "ZipCode": "0188",
    "Id": "01H98F4FVRPW0FA3V9VRMN62RE",
    "Name": "Tagcat",
    "Location": { "Latitude": 59.9128876, "Longitude": 10.7612521 },
    "Address": {
      "Street": "2943 Mesta Point",
      "Ward": "Ward 3",
      "City": "Oslo",
      "Province": "Oslo",
      "ZipCode": "3037"
    },
    "Status": 1
  },
  {
    "ZipCode": "64280-000",
    "Id": "01H98F4FVSF0EAK4S98Z0WB9C7",
    "Name": "DabZ",
    "Location": { "Latitude": -4.8220831, "Longitude": -42.1644994 },
    "Address": {
      "Street": "27 Thompson Hill",
      "Ward": "Ward 5",
      "City": "Campo Maior"
    },
    "Status": 1
  },
  {
    "ZipCode": "64500-000",
    "Id": "01H98F4FVXK078ZTEXWBEH4J8N",
    "Name": "Avamba",
    "Location": { "Latitude": -7.0386232, "Longitude": -42.1572702 },
    "Address": {
      "Street": "71 Summerview Point",
      "Ward": "Ward 5",
      "City": "Oeiras",
      "ZipCode": "63180"
    },
    "Status": 1
  },
  {
    "ZipCode": "83077 CEDEX 9",
    "Id": "01H98F4FW1GDEZXB03MDDBZ52C",
    "Name": "Photobug",
    "Location": { "Latitude": 43.1283145, "Longitude": 5.9294606 },
    "Address": {
      "Street": "250 Bultman Crossing",
      "Ward": "Ward 5",
      "City": "Toulon",
      "Province": "Provence-Alpes-Côte d'Azur",
      "ZipCode": "62-511"
    },
    "Status": 1
  },
  {
    "ZipCode": "2408",
    "Id": "01H98F4FW2HW0SEBHT7CTGM1PZ",
    "Name": "Zazio",
    "Location": { "Latitude": 16.109324, "Longitude": 119.8289909 },
    "Address": {
      "Street": "42391 Ridge Oak Avenue",
      "Ward": "Ward 2",
      "City": "Bangan-Oda"
    },
    "Status": 1
  },
  {
    "ZipCode": "4419",
    "Id": "01H98F4FW4QX5WR44FV1MSP3X4",
    "Name": "Kanoodle",
    "Location": { "Latitude": 14.5941382, "Longitude": 121.0671868 },
    "Address": {
      "Street": "4571 Badeau Circle",
      "Ward": "Ward 5",
      "City": "Ocampo"
    },
    "Status": 1
  },
  {
    "ZipCode": "46-220",
    "Id": "01H98F4FW73DMQF0T7WC8T718T",
    "Name": "Minyx",
    "Location": { "Latitude": 51.11327, "Longitude": 18.21114 },
    "Address": {
      "Street": "95448 South Parkway",
      "Ward": "Ward 4",
      "City": "Byczyna"
    },
    "Status": 1
  },
  {
    "ZipCode": "4650-304",
    "Id": "01H98F4FW8ZEJVQ4DQHJP77SAV",
    "Name": "Vidoo",
    "Location": { "Latitude": 41.3905327, "Longitude": -8.3219318 },
    "Address": {
      "Street": "8973 Porter Crossing",
      "Ward": "Ward 3",
      "City": "Belos Ares",
      "Province": "Porto"
    },
    "Status": 1
  },
  {
    "ZipCode": "368628",
    "Id": "01H98F4FWA3YY86YJGVX0YCEEK",
    "Name": "Realfire",
    "Location": { "Latitude": 42.1662941, "Longitude": 48.1164779 },
    "Address": {
      "Street": "2 Blaine Road",
      "Ward": "Trường Thạnh",
      "City": "Mamedkala"
    },
    "Status": 1
  },
  {
    "ZipCode": "452815",
    "Id": "01H98F4FWBYRYN88GXTQW8087J",
    "Name": "Devpulse",
    "Location": { "Latitude": 56.0887469, "Longitude": 55.3476176 },
    "Address": {
      "Street": "4313 Longview Court",
      "Ward": "Trường Thạnh",
      "City": "Mesyagutovo",
      "ZipCode": "36-043"
    },
    "Status": 1
  },
  {
    "ZipCode": "2435-454",
    "Id": "01H98F4FWF6W7JMCE94YAV3N5F",
    "Name": "Gigaclub",
    "Location": { "Latitude": 39.7075592, "Longitude": -8.6041746 },
    "Address": {
      "Street": "2199 Grover Point",
      "Ward": "Trường Thạnh",
      "City": "Olival",
      "Province": "Santarém"
    },
    "Status": 0
  },
  {
    "ZipCode": "312 36",
    "Id": "01H98F4FWG8RA67TH1SQ4A1SDC",
    "Name": "Gigazoom",
    "Location": { "Latitude": 56.5006765, "Longitude": 13.0587651 },
    "Address": {
      "Street": "7233 Forest Dale Lane",
      "Ward": "Trường Thạnh",
      "City": "Laholm",
      "Province": "Halland",
      "ZipCode": "97-352"
    },
    "Status": 1
  },
  {
    "ZipCode": "243418",
    "Id": "01H98F4FWJ9K96AVQZCKG9XW8Y",
    "Name": "Eire",
    "Location": { "Latitude": 52.8595744, "Longitude": 33.3645241 },
    "Address": {
      "Street": "282 Luster Parkway",
      "Ward": "Ward 5",
      "City": "Pochep",
      "ZipCode": "54046 CEDEX"
    },
    "Status": 0
  },
  {
    "ZipCode": "203067",
    "Id": "01H98F4FWQVDNZE7BFXT8W0MEM",
    "Name": "Brainbox",
    "Location": { "Latitude": 9.201062, "Longitude": -73.5425659 },
    "Address": {
      "Street": "25 Ohio Road",
      "Ward": "Ward 5",
      "City": "Curumaní"
    },
    "Status": 0
  },
  {
    "ZipCode": "71110",
    "Id": "01H98F4FWS73VA9ZJY903EXKVV",
    "Name": "Topiczoom",
    "Location": { "Latitude": 13.97491, "Longitude": 99.636919 },
    "Address": {
      "Street": "30565 Blackbird Hill",
      "Ward": "Ward 2",
      "City": "Tha Muang"
    },
    "Status": 1
  },
  {
    "ZipCode": "289 22",
    "Id": "01H98F4FWTD769JFHDAS1G6GNB",
    "Name": "Yakitri",
    "Location": { "Latitude": 50.2014324, "Longitude": 14.8328189 },
    "Address": {
      "Street": "6 Ronald Regan Crossing",
      "Ward": "Ward 2",
      "City": "Lysá nad Labem"
    },
    "Status": 0
  },
  {
    "ZipCode": "08190",
    "Id": "01H98F4FWVSG5R1ZK5GDW84717",
    "Name": "Oodoo",
    "Location": { "Latitude": 41.4904044, "Longitude": 2.0776887 },
    "Address": {
      "Street": "1 Ohio Center",
      "Ward": "Ward 3",
      "City": "Sant Cugat Del Valles",
      "Province": "Cataluna"
    },
    "Status": 0
  },
  {
    "ZipCode": "N1G",
    "Id": "01H98F4FWX567H8BE0DKCW3VBK",
    "Name": "Zava",
    "Location": { "Latitude": 50.81011, "Longitude": -121.3246 },
    "Address": {
      "Street": "657 Oneill Alley",
      "Ward": "Trường Thạnh",
      "City": "Cache Creek",
      "Province": "British Columbia"
    },
    "Status": 1
  },
  {
    "ZipCode": "15517",
    "Id": "01H98F4FWYFD9GVPM5JNW50TJG",
    "Name": "Buzzshare",
    "Location": { "Latitude": 6.1097207, "Longitude": 102.2462087 },
    "Address": {
      "Street": "3 Stoughton Court",
      "Ward": "Trường Thạnh",
      "City": "Kota Bharu",
      "Province": "Kelantan",
      "ZipCode": "301735"
    },
    "Status": 0
  },
  {
    "ZipCode": "141662",
    "Id": "01H98F4FWZPHS3GFC0437QDJ98",
    "Name": "Miboo",
    "Location": { "Latitude": 55.4203835, "Longitude": 38.3673637 },
    "Address": {
      "Street": "3 Coleman Street",
      "Ward": "Ward 5",
      "City": "Nikulino"
    },
    "Status": 0
  },
  {
    "ZipCode": "368380",
    "Id": "01H98F4FX0TP18ZCDEW3XMX1K0",
    "Name": "Zoomcast",
    "Location": { "Latitude": 41.7806536, "Longitude": 47.5943485 },
    "Address": {
      "Street": "1 Hayes Trail",
      "Ward": "Ward 5",
      "City": "Tpig",
      "ZipCode": "82-550"
    },
    "Status": 1
  },
  {
    "ZipCode": "530-0012",
    "Id": "01H98F4FX3K6E2NM4MGFZE2RXZ",
    "Name": "Chatterpoint",
    "Location": { "Latitude": 34.705939, "Longitude": 135.4972513 },
    "Address": {
      "Street": "2 Sachs Crossing",
      "Ward": "Trường Thạnh",
      "City": "Shibata",
      "ZipCode": "3454"
    },
    "Status": 1
  },
  {
    "ZipCode": "07104",
    "Id": "01H98F4FX7QSY1Q6SW1A7Q1SCK",
    "Name": "Pixonyx",
    "Location": { "Latitude": 40.7758541, "Longitude": -74.1650991 },
    "Address": {
      "Street": "2 Delladonna Way",
      "Ward": "Ward 2",
      "City": "Newark",
      "Province": "New Jersey"
    },
    "Status": 1
  },
  {
    "ZipCode": "659600",
    "Id": "01H98F4FX8A8SQCZKR1VA6W4Q1",
    "Name": "Feedbug",
    "Location": { "Latitude": 52.307093, "Longitude": 85.0828553 },
    "Address": {
      "Street": "693 Morrow Avenue",
      "Ward": "Ward 2",
      "City": "Smolenskoye"
    },
    "Status": 0
  },
  {
    "ZipCode": "597-0095",
    "Id": "01H98F4FXABZNRJB0JF7HN559F",
    "Name": "Talane",
    "Location": { "Latitude": 34.4981065, "Longitude": 135.4073102 },
    "Address": {
      "Street": "45 Loomis Junction",
      "Ward": "Ward 4",
      "City": "Izumiōtsu"
    },
    "Status": 1
  },
  {
    "ZipCode": "5105",
    "Id": "01H98F4FXBW1VMXR6D65AHFYRK",
    "Name": "Leexo",
    "Location": { "Latitude": 13.0748879, "Longitude": 120.7213113 },
    "Address": {
      "Street": "5478 Burning Wood Court",
      "Ward": "Ward 2",
      "City": "Santa Cruz"
    },
    "Status": 0
  },
  {
    "ZipCode": "94745 CEDEX",
    "Id": "01H98F4FXDK7R54Z5FR3HC9E2N",
    "Name": "Dabtype",
    "Location": { "Latitude": 46.7713478, "Longitude": 3.8379578 },
    "Address": {
      "Street": "224 Loftsgordon Trail",
      "Ward": "Ward 5",
      "City": "Arcueil",
      "Province": "Île-de-France"
    },
    "Status": 0
  },
  {
    "ZipCode": "9613",
    "Id": "01H98F4FXG7D07DPMVAFD1N3FH",
    "Name": "Skinte",
    "Location": { "Latitude": 7.467576, "Longitude": 124.253569 },
    "Address": {
      "Street": "71 Esch Center",
      "Ward": "Ward 3",
      "City": "Matanog",
      "ZipCode": "74108"
    },
    "Status": 1
  },
  {
    "ZipCode": "216507",
    "Id": "01H98F4FXJKEAEZW9S0DM4ZMYA",
    "Name": "Feednation",
    "Location": { "Latitude": 53.9476748, "Longitude": 32.8565262 },
    "Address": {
      "Street": "556 6th Place",
      "Ward": "Ward 3",
      "City": "Roslavl’",
      "ZipCode": "28-411"
    },
    "Status": 0
  },
  {
    "ZipCode": "38106",
    "Id": "01H98F4FXMK44NVZAFZ4Z17WX8",
    "Name": "Edgeblab",
    "Location": { "Latitude": 52.2802311, "Longitude": 10.5390217 },
    "Address": {
      "Street": "98052 Nobel Alley",
      "Ward": "Trường Thạnh",
      "City": "Braunschweig",
      "Province": "Niedersachsen",
      "ZipCode": "7900-455"
    },
    "Status": 0
  },
  {
    "ZipCode": "4485-296",
    "Id": "01H98F4FXPBFK6AGPAG7CJ6Y5Z",
    "Name": "Tagpad",
    "Location": { "Latitude": 41.2781543, "Longitude": -8.718171 },
    "Address": {
      "Street": "792 Hoffman Pass",
      "Ward": "Trường Thạnh",
      "City": "Labruge",
      "Province": "Porto",
      "ZipCode": "41240"
    },
    "Status": 1
  },
  {
    "ZipCode": "11806",
    "Id": "01H98F4FXQAD2ZZW8P7Q4SXRHN",
    "Name": "Devify",
    "Location": { "Latitude": 18.4895862, "Longitude": -69.8639751 },
    "Address": {
      "Street": "9010 Killdeer Plaza",
      "Ward": "Trường Thạnh",
      "City": "Santo Domingo Este",
      "ZipCode": "75455 CEDEX 09"
    },
    "Status": 1
  },
  {
    "ZipCode": "29193 CEDEX",
    "Id": "01H98F4FXRC8K9SGGFGKG9A96A",
    "Name": "Edgeblab",
    "Location": { "Latitude": 47.9962116, "Longitude": -4.1020654 },
    "Address": {
      "Street": "5 Utah Parkway",
      "Ward": "Ward 5",
      "City": "Quimper",
      "Province": "Bretagne"
    },
    "Status": 0
  },
  {
    "ZipCode": "38823",
    "Id": "01H98F4FXW5J6S8ZJD46G0T3C8",
    "Name": "Kazio",
    "Location": { "Latitude": 20.123518, "Longitude": -101.1833267 },
    "Address": {
      "Street": "71 Golf Course Terrace",
      "Ward": "Ward 3",
      "City": "Las Flores",
      "Province": "Guanajuato",
      "ZipCode": "93848"
    },
    "Status": 0
  },
  {
    "ZipCode": "47555 CEDEX",
    "Id": "01H98F4FY3PD01GGDB4FFH03N8",
    "Name": "Brainbox",
    "Location": { "Latitude": 44.190357, "Longitude": 0.63968 },
    "Address": {
      "Street": "5479 Merry Circle",
      "Ward": "Ward 2",
      "City": "Boé",
      "Province": "Aquitaine",
      "ZipCode": "4990-585"
    },
    "Status": 0
  },
  {
    "ZipCode": "11-420",
    "Id": "01H98F4FY7DQ5YC2MFZ8635HGK",
    "Name": "Demizz",
    "Location": { "Latitude": 54.2139021, "Longitude": 21.5226322 },
    "Address": {
      "Street": "51549 Lerdahl Pass",
      "Ward": "Ward 4",
      "City": "Srokowo",
      "ZipCode": "18001"
    },
    "Status": 0
  },
  {
    "ZipCode": "22111",
    "Id": "01H98F4FY9P5JTK61PEVDYEMSC",
    "Name": "Avamm",
    "Location": { "Latitude": 53.5483785, "Longitude": 10.078217 },
    "Address": {
      "Street": "885 Morningstar Center",
      "Ward": "Ward 5",
      "City": "Hamburg",
      "Province": "Hamburg"
    },
    "Status": 1
  },
  {
    "ZipCode": "751 21",
    "Id": "01H98F4FYAKW0NE6JF6VFF86AS",
    "Name": "Jabbersphere",
    "Location": { "Latitude": 49.5098047, "Longitude": 17.4772489 },
    "Address": {
      "Street": "799 Myrtle Way",
      "Ward": "Ward 2",
      "City": "Radvanice"
    },
    "Status": 0
  },
  {
    "ZipCode": "5005",
    "Id": "01H98F4FYCXG8CHYS6HH7C13BN",
    "Name": "Pixope",
    "Location": { "Latitude": 11.237963, "Longitude": 122.6733826 },
    "Address": {
      "Street": "14 Center Court",
      "Ward": "Ward 4",
      "City": "Gibato",
      "ZipCode": "10514"
    },
    "Status": 1
  },
  {
    "ZipCode": "34829",
    "Id": "01H98F4FYD2838ZVVQRGET4YCW",
    "Name": "Jaxnation",
    "Location": { "Latitude": 40.8321934, "Longitude": 40.0092505 },
    "Address": {
      "Street": "6 Dapin Avenue",
      "Ward": "Ward 3",
      "City": "Merkezköy",
      "Province": "İstanbul",
      "ZipCode": "42335 CEDEX"
    },
    "Status": 0
  },
  {
    "ZipCode": "993-0073",
    "Id": "01H98F4FYH207WJV6Z1KENJE7W",
    "Name": "Realpoint",
    "Location": { "Latitude": 38.1230866, "Longitude": 140.0547688 },
    "Address": {
      "Street": "2592 Hoepker Center",
      "Ward": "Ward 2",
      "City": "Mori",
      "ZipCode": "731048"
    },
    "Status": 1
  },
  {
    "ZipCode": "5155-505",
    "Id": "01H98F4FYMKCSPHNE4H0XYQHQM",
    "Name": "Oyoloo",
    "Location": { "Latitude": 41.1013753, "Longitude": -7.2325243 },
    "Address": {
      "Street": "01949 Ryan Point",
      "Ward": "Trường Thạnh",
      "City": "Murça",
      "Province": "Guarda",
      "ZipCode": "4612"
    },
    "Status": 1
  },
  {
    "ZipCode": "1122",
    "Id": "01H98F4FYPPP9TMM3GC1QTV1FS",
    "Name": "Tagtune",
    "Location": { "Latitude": 47.5039111, "Longitude": 19.0158217 },
    "Address": {
      "Street": "7648 Hazelcrest Center",
      "Ward": "Ward 4",
      "City": "Budapest",
      "Province": "Budapest",
      "ZipCode": "42360"
    },
    "Status": 0
  },
  {
    "ZipCode": "619650",
    "Id": "01H98F4FYSKEHADQ8TN9TC4Q21",
    "Name": "Devpulse",
    "Location": { "Latitude": 60.3278292, "Longitude": 54.3033879 },
    "Address": {
      "Street": "5600 Dunning Crossing",
      "Ward": "Ward 3",
      "City": "Gayny",
      "ZipCode": "181353"
    },
    "Status": 1
  },
  {
    "ZipCode": "70000",
    "Id": "01H98F4FYTRJXQTEY6XC5FH423",
    "Name": "Teklist",
    "Location": { "Latitude": 6.6814285, "Longitude": 80.399764 },
    "Address": {
      "Street": "1635 Del Mar Circle",
      "Ward": "Trường Thạnh",
      "City": "Ratnapura",
      "ZipCode": "120 38"
    },
    "Status": 1
  },
  {
    "ZipCode": "24421",
    "Id": "01H98F4FYV0T0QZYKZYQDC4SGH",
    "Name": "Roodel",
    "Location": { "Latitude": 32.454801, "Longitude": 72.4228661 },
    "Address": {
      "Street": "210 Johnson Center",
      "Ward": "Ward 4",
      "City": "Chakwāl",
      "ZipCode": "413362"
    },
    "Status": 0
  },
  {
    "ZipCode": "3410",
    "Id": "01H98F4FYWM1767S6KDW8HBC5R",
    "Name": "Devcast",
    "Location": { "Latitude": 23.8882098, "Longitude": 90.9605637 },
    "Address": {
      "Street": "64 Prentice Pass",
      "Ward": "Ward 3",
      "City": "Nabīnagar"
    },
    "Status": 0
  },
  {
    "ZipCode": "4600",
    "Id": "01H98F4FYYA8AW6ECJ7K7RJQF6",
    "Name": "Eidel",
    "Location": { "Latitude": -24.1959097, "Longitude": -65.2939441 },
    "Address": {
      "Street": "6620 Schiller Drive",
      "Ward": "Ward 3",
      "City": "San Salvador de Jujuy"
    },
    "Status": 0
  },
  {
    "ZipCode": "26000-000",
    "Id": "01H98F4FZ01AFWAQQN4BD7NT9S",
    "Name": "Brainlounge",
    "Location": { "Latitude": -22.7561319, "Longitude": -43.4607419 },
    "Address": {
      "Street": "6 Vermont Trail",
      "Ward": "Ward 3",
      "City": "Nova Iguaçu",
      "ZipCode": "8038"
    },
    "Status": 0
  },
  {
    "ZipCode": "9023",
    "Id": "01H98F4FZ26G22YN9BAJT7M82D",
    "Name": "Yakidoo",
    "Location": { "Latitude": 8.4286368, "Longitude": 124.2876362 },
    "Address": {
      "Street": "7147 Fairfield Street",
      "Ward": "Ward 2",
      "City": "Naawan"
    },
    "Status": 1
  },
  {
    "ZipCode": "17073 CEDEX 9",
    "Id": "01H98F4FZ34C4PQWR7539KM7S3",
    "Name": "Centidel",
    "Location": { "Latitude": 47.9318074, "Longitude": 5.2893597 },
    "Address": {
      "Street": "5 Myrtle Court",
      "Ward": "Ward 4",
      "City": "La Rochelle",
      "Province": "Poitou-Charentes"
    },
    "Status": 1
  },
  {
    "ZipCode": "795 01",
    "Id": "01H98F4FZ4YRZC3ZMDCT5VRYSP",
    "Name": "Linkbuzz",
    "Location": { "Latitude": 49.9318266, "Longitude": 17.2717728 },
    "Address": {
      "Street": "063 Lakewood Place",
      "Ward": "Ward 2",
      "City": "Rýmařov",
      "ZipCode": "02208"
    },
    "Status": 0
  },
  {
    "ZipCode": "30505",
    "Id": "01H98F4FZ59TPREA07BEM11E2D",
    "Name": "Skipstorm",
    "Location": { "Latitude": 23.7321074, "Longitude": -103.9832684 },
    "Address": {
      "Street": "2 Hoffman Lane",
      "Ward": "Ward 4",
      "City": "Vicente Guerrero",
      "Province": "Chiapas",
      "ZipCode": "5889"
    },
    "Status": 1
  },
  {
    "ZipCode": "883-0103",
    "Id": "01H98F4FZ6WEVGEH3K6Y3FNPSP",
    "Name": "Dynabox",
    "Location": { "Latitude": 41.737365, "Longitude": 140.5800948 },
    "Address": {
      "Street": "69264 Vera Point",
      "Ward": "Ward 4",
      "City": "Tōbetsu"
    },
    "Status": 1
  },
  {
    "ZipCode": "96-314",
    "Id": "01H98F4FZBFA08TBKW0PQ85GFE",
    "Name": "Linkbuzz",
    "Location": { "Latitude": 52.1474235, "Longitude": 20.4745018 },
    "Address": {
      "Street": "17 Butternut Circle",
      "Ward": "Ward 5",
      "City": "Baranów"
    },
    "Status": 0
  },
  {
    "ZipCode": "70101",
    "Id": "01H98F4FZCCGF252RX2Y37D9WM",
    "Name": "Fatz",
    "Location": { "Latitude": 9.93689, "Longitude": -83.00685 },
    "Address": {
      "Street": "7 Sunnyside Street",
      "Ward": "Ward 4",
      "City": "Limón",
      "ZipCode": "47-150"
    },
    "Status": 0
  },
  {
    "ZipCode": "2955-260",
    "Id": "01H98F4FZDGR54RFXJ2752CJPM",
    "Name": "Zoovu",
    "Location": { "Latitude": 38.6491541, "Longitude": -8.949136 },
    "Address": {
      "Street": "60 Hagan Way",
      "Ward": "Trường Thạnh",
      "City": "Carregueira",
      "Province": "Setúbal"
    },
    "Status": 1
  },
  {
    "ZipCode": "4631",
    "Id": "01H98F4FZFDGZR478M4BWX2VKT",
    "Name": "Vipe",
    "Location": { "Latitude": -31.4115298, "Longitude": -64.2457699 },
    "Address": {
      "Street": "0135 Westport Junction",
      "Ward": "Ward 2",
      "City": "Santa Ana",
      "ZipCode": "7824"
    },
    "Status": 1
  },
  {
    "ZipCode": "87-840",
    "Id": "01H98F4G06A99TSZ1ED9Q3R8RK",
    "Name": "Skidoo",
    "Location": { "Latitude": 52.4062515, "Longitude": 19.1651495 },
    "Address": {
      "Street": "090 Donald Park",
      "Ward": "Ward 2",
      "City": "Lubień Kujawski",
      "ZipCode": "2715-217"
    },
    "Status": 1
  },
  {
    "ZipCode": "221",
    "Id": "01H98F4G085Y7FDE3XFVSJVFT9",
    "Name": "Abata",
    "Location": { "Latitude": 64.0516089, "Longitude": -21.986995 },
    "Address": {
      "Street": "6 Sachs Road",
      "Ward": "Trường Thạnh",
      "City": "Hafnarfjörður"
    },
    "Status": 0
  },
  {
    "ZipCode": "45190",
    "Id": "01H98F4G0N4V5T151Q48TDGRDG",
    "Name": "Kayveo",
    "Location": { "Latitude": 15.6338588, "Longitude": 103.3421371 },
    "Address": {
      "Street": "0688 Tony Drive",
      "Ward": "Ward 5",
      "City": "Pathum Rat"
    },
    "Status": 1
  },
  {
    "ZipCode": "663214",
    "Id": "01H98F4G0S565V1JYX3WRWEYPB",
    "Name": "Dynabox",
    "Location": { "Latitude": 54.939834, "Longitude": 20.1270433 },
    "Address": {
      "Street": "2229 Rieder Terrace",
      "Ward": "Ward 2",
      "City": "Svetlogorsk",
      "ZipCode": "69362 CEDEX 07"
    },
    "Status": 0
  },
  {
    "ZipCode": "6090-014",
    "Id": "01H98F4G0TVG5VVX33S4CMZ54D",
    "Name": "Kimia",
    "Location": { "Latitude": 40.1128037, "Longitude": -7.205968 },
    "Address": {
      "Street": "80 Buhler Crossing",
      "Ward": "Ward 5",
      "City": "Águas",
      "Province": "Castelo Branco"
    },
    "Status": 0
  },
  {
    "ZipCode": "453259",
    "Id": "01H98F4G0T26JDH3WQPSKS70YV",
    "Name": "Yamia",
    "Location": { "Latitude": 53.3624134, "Longitude": 55.9381136 },
    "Address": {
      "Street": "7246 Troy Junction",
      "Ward": "Ward 3",
      "City": "Salavat",
      "ZipCode": "95520-000"
    },
    "Status": 1
  },
  {
    "ZipCode": "3517",
    "Id": "01H98F4G0W8C39V5MG0KW6XFAY",
    "Name": "Bubblebox",
    "Location": { "Latitude": 18.3999996, "Longitude": 121.5166702 },
    "Address": {
      "Street": "2 Delaware Circle",
      "Ward": "Ward 5",
      "City": "Cabaritan East"
    },
    "Status": 0
  },
  {
    "ZipCode": "84240",
    "Id": "01H98F4G0YCV2QY3Q3EDGZMWV0",
    "Name": "Oba",
    "Location": { "Latitude": 18.7744983, "Longitude": 98.9989307 },
    "Address": {
      "Street": "6 Pond Alley",
      "Ward": "Ward 2",
      "City": "Chang Klang",
      "ZipCode": "925-0373"
    },
    "Status": 0
  },
  {
    "ZipCode": "357859",
    "Id": "01H98F4G11XZNKPARKZBSGQW33",
    "Name": "Devpulse",
    "Location": { "Latitude": 43.69694, "Longitude": 44.93444 },
    "Address": {
      "Street": "099 Del Sol Lane",
      "Ward": "Ward 4",
      "City": "Galyugayevskaya"
    },
    "Status": 0
  },
  {
    "ZipCode": "595 52",
    "Id": "01H98F4G11FAPZCWT9FE61X95C",
    "Name": "Cogibox",
    "Location": { "Latitude": 58.3209912, "Longitude": 15.1341949 },
    "Address": {
      "Street": "37 Linden Junction",
      "Ward": "Ward 2",
      "City": "Mjölby",
      "Province": "Östergötland",
      "ZipCode": "68385-000"
    },
    "Status": 0
  },
  {
    "ZipCode": "5950",
    "Id": "01H98F4G14DJV2SHG1KZQYARP7",
    "Name": "Demivee",
    "Location": { "Latitude": -31.1846901, "Longitude": 24.9491323 },
    "Address": {
      "Street": "95470 Laurel Park",
      "Ward": "Ward 4",
      "City": "Noupoort"
    },
    "Status": 0
  },
  {
    "ZipCode": "90831",
    "Id": "01H98F4G17GZF40W9HRNJFZFS6",
    "Name": "Skyba",
    "Location": { "Latitude": 33.7684556, "Longitude": -118.2022212 },
    "Address": {
      "Street": "53998 Nancy Circle",
      "Ward": "Ward 5",
      "City": "Long Beach",
      "Province": "California",
      "ZipCode": "91130"
    },
    "Status": 1
  },
  {
    "ZipCode": "94209 CEDEX",
    "Id": "01H98F4G19JGD6VBET34BXH6Z1",
    "Name": "Chatterpoint",
    "Location": { "Latitude": 48.819324, "Longitude": 2.394771 },
    "Address": {
      "Street": "93363 Fulton Terrace",
      "Ward": "Ward 5",
      "City": "Ivry-sur-Seine",
      "Province": "Île-de-France",
      "ZipCode": "382 33"
    },
    "Status": 1
  },
  {
    "ZipCode": "879-0444",
    "Id": "01H98F4G1AGT33P6CS134VF9W7",
    "Name": "Yakidoo",
    "Location": { "Latitude": 43.32472, "Longitude": 141.85861 },
    "Address": { "Street": "243 Kropf Way", "Ward": "Ward 4", "City": "Bibai" },
    "Status": 0
  },
  {
    "ZipCode": "63136",
    "Id": "01H98F4G1DRTZ22WSBAEP91FXB",
    "Name": "Mymm",
    "Location": { "Latitude": 21.5032386, "Longitude": -104.9078597 },
    "Address": {
      "Street": "33903 Sommers Way",
      "Ward": "Ward 2",
      "City": "Independencia",
      "Province": "Nayarit"
    },
    "Status": 1
  },
  {
    "ZipCode": "06-415",
    "Id": "01H98F4G1EMTQTKSQVESJ8E1D1",
    "Name": "Ozu",
    "Location": { "Latitude": 53.032343, "Longitude": 20.7180021 },
    "Address": {
      "Street": "93391 East Junction",
      "Ward": "Ward 3",
      "City": "Czernice Borowe"
    },
    "Status": 1
  },
  {
    "ZipCode": "13220-000",
    "Id": "01H98F4G1GVPB56472096FEFTP",
    "Name": "Roodel",
    "Location": { "Latitude": -23.2140719, "Longitude": -46.8238911 },
    "Address": {
      "Street": "6961 Colorado Place",
      "Ward": "Ward 5",
      "City": "Várzea Paulista",
      "ZipCode": "73240"
    },
    "Status": 0
  },
  {
    "ZipCode": "33680",
    "Id": "01H98F4G1JTCQEQ4XKYE6458SC",
    "Name": "Zoomzone",
    "Location": { "Latitude": 27.9961123, "Longitude": -82.4290869 },
    "Address": {
      "Street": "63 Merrick Park",
      "Ward": "Trường Thạnh",
      "City": "Tampa",
      "Province": "Florida"
    },
    "Status": 1
  },
  {
    "ZipCode": "37-300",
    "Id": "01H98F4G1KPTQ3VB87SS70DNZG",
    "Name": "Kaymbo",
    "Location": { "Latitude": 50.2620534, "Longitude": 22.4210807 },
    "Address": {
      "Street": "67876 Thompson Trail",
      "Ward": "Trường Thạnh",
      "City": "Leżajsk"
    },
    "Status": 1
  },
  {
    "ZipCode": "739 39",
    "Id": "01H98F4G1M0XCM6BQN6WRCGZM2",
    "Name": "Wordtune",
    "Location": { "Latitude": 49.7133875, "Longitude": 18.4511722 },
    "Address": {
      "Street": "55 Schmedeman Point",
      "Ward": "Trường Thạnh",
      "City": "Lučina"
    },
    "Status": 1
  },
  {
    "ZipCode": "4580-604",
    "Id": "01H98F4G1SE17GGFE006EADPT9",
    "Name": "Pixoboo",
    "Location": { "Latitude": 41.2479207, "Longitude": -8.3626963 },
    "Address": {
      "Street": "56 John Wall Hill",
      "Ward": "Ward 3",
      "City": "Sobrosa",
      "Province": "Porto"
    },
    "Status": 0
  },
  {
    "ZipCode": "30394",
    "Id": "01H98F4G1VDMNMYYQK2W16EH2N",
    "Name": "Fivebridge",
    "Location": { "Latitude": 37.5968793, "Longitude": -1.0346774 },
    "Address": {
      "Street": "828 Butterfield Pass",
      "Ward": "Ward 2",
      "City": "Cartagena",
      "Province": "Murcia"
    },
    "Status": 1
  },
  {
    "ZipCode": "6527",
    "Id": "01H98F4G1WJ828TMGTGP490ZC3",
    "Name": "Mydo",
    "Location": { "Latitude": 11.1449142, "Longitude": 124.8326192 },
    "Address": {
      "Street": "277 Sutherland Street",
      "Ward": "Ward 5",
      "City": "Jaro",
      "ZipCode": "3550"
    },
    "Status": 1
  },
  {
    "ZipCode": "2495-505",
    "Id": "01H98F4G1X9V1Q22VYT7Y0SPQM",
    "Name": "Roodel",
    "Location": { "Latitude": 39.6080157, "Longitude": -8.6664683 },
    "Address": {
      "Street": "0948 Norway Maple Street",
      "Ward": "Trường Thạnh",
      "City": "Eira da Pedra",
      "Province": "Santarém",
      "ZipCode": "75215 CEDEX 16"
    },
    "Status": 1
  },
  {
    "ZipCode": "4355",
    "Id": "01H98F4G1YPHBPVJK3JK8YXD35",
    "Name": "Kazio",
    "Location": { "Latitude": 22.7537259, "Longitude": 91.714958 },
    "Address": {
      "Street": "4598 Village Avenue",
      "Ward": "Trường Thạnh",
      "City": "Fatikchari"
    },
    "Status": 1
  },
  {
    "ZipCode": "25326",
    "Id": "01H98F4G20YWKK35DZ71CBMSER",
    "Name": "Plambee",
    "Location": { "Latitude": 38.35, "Longitude": -81.63 },
    "Address": {
      "Street": "81209 Kinsman Circle",
      "Ward": "Trường Thạnh",
      "City": "Charleston",
      "Province": "West Virginia",
      "ZipCode": "969-1619"
    },
    "Status": 0
  },
  {
    "ZipCode": "4645",
    "Id": "01H98F4G21ZBGDZ3TG1YK569TE",
    "Name": "Katz",
    "Location": { "Latitude": 42.0275439, "Longitude": 23.9915523 },
    "Address": {
      "Street": "75244 Eastwood Trail",
      "Ward": "Ward 2",
      "City": "Velingrad"
    },
    "Status": 1
  },
  {
    "ZipCode": "4500",
    "Id": "01H98F4G247YA3998WSY04310A",
    "Name": "Buzzshare",
    "Location": { "Latitude": -34.6492768, "Longitude": -58.4809081 },
    "Address": {
      "Street": "972 Ilene Hill",
      "Ward": "Ward 3",
      "City": "San Pedro",
      "ZipCode": "164610"
    },
    "Status": 1
  },
  {
    "ZipCode": "70690",
    "Id": "01H98F4G2523TDB33TJNZRMTQE",
    "Name": "Rhybox",
    "Location": { "Latitude": 2.7239834, "Longitude": 101.9476452 },
    "Address": {
      "Street": "8 Marquette Drive",
      "Ward": "Ward 3",
      "City": "Seremban",
      "Province": "Negeri Sembilan",
      "ZipCode": "50402"
    },
    "Status": 1
  },
  {
    "ZipCode": "781 87",
    "Id": "01H98F4G26BH8W1V38AZ00V55V",
    "Name": "Skyba",
    "Location": { "Latitude": 60.4741704, "Longitude": 15.4902722 },
    "Address": {
      "Street": "04649 Magdeline Alley",
      "Ward": "Ward 3",
      "City": "Borlänge",
      "Province": "Dalarna"
    },
    "Status": 0
  },
  {
    "ZipCode": "3887",
    "Id": "01H98F4G28ZJS4SMRJ9YGFJJ7H",
    "Name": "Jabberbean",
    "Location": { "Latitude": -28.8676839, "Longitude": 31.9160211 },
    "Address": {
      "Street": "68259 Westridge Court",
      "Ward": "Ward 4",
      "City": "eSikhawini",
      "ZipCode": "34829"
    },
    "Status": 0
  },
  {
    "ZipCode": "34940 CEDEX 9",
    "Id": "01H98F4G2FX78T9X2Y8BVWSPCH",
    "Name": "Meembee",
    "Location": { "Latitude": 47.3752386, "Longitude": -0.8453268 },
    "Address": {
      "Street": "8938 Fairfield Avenue",
      "Ward": "Ward 2",
      "City": "Montpellier",
      "Province": "Languedoc-Roussillon",
      "ZipCode": "853-0704"
    },
    "Status": 0
  },
  {
    "ZipCode": "D11",
    "Id": "01H98F4G2G9SFE1DVM7Z2W5TH5",
    "Name": "Gabtune",
    "Location": { "Latitude": 51.8885086, "Longitude": -8.445614 },
    "Address": {
      "Street": "9 Towne Avenue",
      "Ward": "Ward 5",
      "City": "Drumcondra"
    },
    "Status": 1
  },
  {
    "ZipCode": "39-215",
    "Id": "01H98F4G2JQP12J0KGKB181KHF",
    "Name": "Digitube",
    "Location": { "Latitude": 50.0672776, "Longitude": 21.2406149 },
    "Address": {
      "Street": "68 Gerald Point",
      "Ward": "Ward 3",
      "City": "Czarna",
      "ZipCode": "78490"
    },
    "Status": 0
  },
  {
    "ZipCode": "32-851",
    "Id": "01H98F4G2KFNPC96F9KEFGDTEK",
    "Name": "Browsecat",
    "Location": { "Latitude": 49.9592267, "Longitude": 20.6436082 },
    "Address": {
      "Street": "3692 Quincy Park",
      "Ward": "Ward 3",
      "City": "Jadowniki"
    },
    "Status": 0
  },
  {
    "ZipCode": "3716",
    "Id": "01H98F4G2PP6CHE9XYF5CEG55T",
    "Name": "Realbuzz",
    "Location": { "Latitude": 59.2264806, "Longitude": 9.5943509 },
    "Address": {
      "Street": "0 Portage Way",
      "Ward": "Ward 2",
      "City": "Skien",
      "Province": "Telemark",
      "ZipCode": "88330-000"
    },
    "Status": 1
  },
  {
    "ZipCode": "7102",
    "Id": "01H98F4G2QCTFWKC1M4GV537BZ",
    "Name": "Devshare",
    "Location": { "Latitude": 14.6103278, "Longitude": 121.0080574 },
    "Address": {
      "Street": "800 Corben Way",
      "Ward": "Trường Thạnh",
      "City": "Roxas",
      "ZipCode": "G5N"
    },
    "Status": 0
  },
  {
    "ZipCode": "603024",
    "Id": "01H98F4G2RY1PX4ST61M839CSK",
    "Name": "Yadel",
    "Location": { "Latitude": 54.2732308, "Longitude": 32.014211 },
    "Address": {
      "Street": "9 Stang Way",
      "Ward": "Ward 2",
      "City": "Monastyrshchina"
    },
    "Status": 1
  },
  {
    "ZipCode": "5214",
    "Id": "01H98F4G2ZZVG2SFZ2R260X0QD",
    "Name": "Wordpedia",
    "Location": { "Latitude": 51.6861013, "Longitude": 5.2933198 },
    "Address": {
      "Street": "968 Hovde Terrace",
      "Ward": "Ward 5",
      "City": "'s-Hertogenbosch",
      "Province": "Provincie Noord-Brabant"
    },
    "Status": 0
  },
  {
    "ZipCode": "91199 CEDEX",
    "Id": "01H98F4G30M0BDDA24GJJQSMBG",
    "Name": "Tambee",
    "Location": { "Latitude": 48.7212066, "Longitude": 2.1222327 },
    "Address": {
      "Street": "76 Little Fleur Center",
      "Ward": "Ward 4",
      "City": "Gif-sur-Yvette",
      "Province": "Île-de-France"
    },
    "Status": 1
  },
  {
    "ZipCode": "2600",
    "Id": "01H98F4G31R8MN7Y6F01TY7SA1",
    "Name": "Shuffledrive",
    "Location": { "Latitude": 16.4112875, "Longitude": 120.6026406 },
    "Address": {
      "Street": "7 Independence Circle",
      "Ward": "Ward 2",
      "City": "Baguio",
      "ZipCode": "V6Y"
    },
    "Status": 0
  },
  {
    "ZipCode": "5870",
    "Id": "01H98F4G32JCMQW236DCR9Z8J9",
    "Name": "Kaymbo",
    "Location": { "Latitude": -31.946337, "Longitude": -65.180261 },
    "Address": {
      "Street": "8 Victoria Point",
      "Ward": "Ward 2",
      "City": "Villa Dolores",
      "ZipCode": "183985"
    },
    "Status": 0
  },
  {
    "ZipCode": "4750-584",
    "Id": "01H98F4G330N6YQG215ZYCBAXR",
    "Name": "Rhyloo",
    "Location": { "Latitude": 41.5821392, "Longitude": -8.5477188 },
    "Address": {
      "Street": "70107 Corscot Pass",
      "Ward": "Trường Thạnh",
      "City": "Oliveira",
      "Province": "Braga"
    },
    "Status": 1
  },
  {
    "ZipCode": "68069 CEDEX 2",
    "Id": "01H98F4G379K31RVY1PQ5KHQH5",
    "Name": "Zooveo",
    "Location": { "Latitude": 47.7489727, "Longitude": 7.3507066 },
    "Address": {
      "Street": "58 Burrows Road",
      "Ward": "Ward 3",
      "City": "Mulhouse",
      "Province": "Alsace"
    },
    "Status": 1
  },
  {
    "ZipCode": "7027",
    "Id": "01H98F4G38DKNA2G16KZAG7F92",
    "Name": "Fliptune",
    "Location": { "Latitude": 14.6156627, "Longitude": 121.0009783 },
    "Address": {
      "Street": "16 Kenwood Hill",
      "Ward": "Trường Thạnh",
      "City": "Josefina"
    },
    "Status": 0
  },
  {
    "ZipCode": "75600-000",
    "Id": "01H98F4G3GDXCCHJZHDGNYMNQ3",
    "Name": "Gigaclub",
    "Location": { "Latitude": -17.9659326, "Longitude": -49.6503106 },
    "Address": {
      "Street": "94894 Bashford Plaza",
      "Ward": "Ward 5",
      "City": "Goiatuba"
    },
    "Status": 1
  },
  {
    "ZipCode": "6507",
    "Id": "01H98F4G3H342BBWAY7PK626BS",
    "Name": "Muxo",
    "Location": { "Latitude": 10.8825337, "Longitude": 124.9871635 },
    "Address": {
      "Street": "4707 Myrtle Place",
      "Ward": "Trường Thạnh",
      "City": "Mayorga",
      "ZipCode": "1531"
    },
    "Status": 0
  },
  {
    "ZipCode": "3733",
    "Id": "01H98F4G3M9GY7G20CHHS44TSR",
    "Name": "Plajo",
    "Location": { "Latitude": -31.0767358, "Longitude": -64.4833187 },
    "Address": {
      "Street": "50 Miller Alley",
      "Ward": "Ward 4",
      "City": "Hermoso Campo"
    },
    "Status": 1
  },
  {
    "ZipCode": "5040",
    "Id": "01H98F4G3PKZ179403G08D6QFT",
    "Name": "Eamia",
    "Location": { "Latitude": 10.3080476, "Longitude": 124.8136246 },
    "Address": {
      "Street": "9 Amoth Junction",
      "Ward": "Ward 4",
      "City": "Ponong"
    },
    "Status": 1
  },
  {
    "ZipCode": "249144",
    "Id": "01H98F4G3Q7EG56E3KZSY8E80C",
    "Name": "Voonte",
    "Location": { "Latitude": 54.2618911, "Longitude": 36.15775 },
    "Address": {
      "Street": "6689 Spenser Plaza",
      "Ward": "Ward 2",
      "City": "Peremyshl’",
      "ZipCode": "3361"
    },
    "Status": 0
  },
  {
    "ZipCode": "617071",
    "Id": "01H98F4G3T1WHW7WZYPKFHDSVY",
    "Name": "Minyx",
    "Location": { "Latitude": 58.0819675, "Longitude": 55.8727412 },
    "Address": {
      "Street": "2022 Ridgeway Terrace",
      "Ward": "Ward 2",
      "City": "Overyata"
    },
    "Status": 1
  },
  {
    "ZipCode": "7600",
    "Id": "01H98F4G3V01FVKDQF4F6PZVK1",
    "Name": "Izio",
    "Location": { "Latitude": -38.0667198, "Longitude": -57.5823273 },
    "Address": {
      "Street": "80 Eagle Crest Center",
      "Ward": "Trường Thạnh",
      "City": "Mar del Plata"
    },
    "Status": 1
  },
  {
    "ZipCode": "30001",
    "Id": "01H98F4G3WNQMBZVPWX5B9TS2E",
    "Name": "Brainlounge",
    "Location": { "Latitude": 55.3734577, "Longitude": 26.2092274 },
    "Address": {
      "Street": "2345 Elka Junction",
      "Ward": "Ward 2",
      "City": "Ignalina"
    },
    "Status": 0
  },
  {
    "ZipCode": "34-222",
    "Id": "01H98F4G40PXDGBK72PVANGGBZ",
    "Name": "Jabbertype",
    "Location": { "Latitude": 49.715157, "Longitude": 19.65651 },
    "Address": {
      "Street": "0133 Vera Trail",
      "Ward": "Trường Thạnh",
      "City": "Grzechynia"
    },
    "Status": 1
  },
  {
    "ZipCode": "K2R",
    "Id": "01H98F4G41R6F1K9TT2JAEJPY3",
    "Name": "LiveZ",
    "Location": { "Latitude": 45.310056, "Longitude": -75.8292031 },
    "Address": {
      "Street": "9 Waywood Park",
      "Ward": "Ward 3",
      "City": "Bells Corners",
      "Province": "Ontario",
      "ZipCode": "2855-162"
    },
    "Status": 1
  },
  {
    "ZipCode": "1316",
    "Id": "01H98F4G45AT4HN6C8RMHMSC22",
    "Name": "Flashset",
    "Location": { "Latitude": 42.16964, "Longitude": 22.11617 },
    "Address": {
      "Street": "515 East Street",
      "Ward": "Ward 3",
      "City": "Ранковце"
    },
    "Status": 1
  },
  {
    "ZipCode": "31124 CEDEX",
    "Id": "01H98F4G46B03QVH3SR6V6EPYD",
    "Name": "Blogpad",
    "Location": { "Latitude": 43.53121, "Longitude": 1.402934 },
    "Address": {
      "Street": "9 Vidon Point",
      "Ward": "Ward 4",
      "City": "Portet-sur-Garonne",
      "Province": "Midi-Pyrénées"
    },
    "Status": 1
  },
  {
    "ZipCode": "35069",
    "Id": "01H98F4G478X6TSZBNDP6YE3GJ",
    "Name": "Skalith",
    "Location": { "Latitude": 23.9891132, "Longitude": -104.6751805 },
    "Address": {
      "Street": "70 Mariners Cove Hill",
      "Ward": "Ward 3",
      "City": "Ejidal",
      "Province": "Durango",
      "ZipCode": "2520-053"
    },
    "Status": 1
  },
  {
    "ZipCode": "731027",
    "Id": "01H98F4G49R8ZC496C6CB461QZ",
    "Name": "Dynazzy",
    "Location": { "Latitude": 4.860823, "Longitude": -74.912667 },
    "Address": {
      "Street": "42 Toban Park",
      "Ward": "Ward 2",
      "City": "Lérida",
      "ZipCode": "H9J"
    },
    "Status": 0
  },
  {
    "ZipCode": "299-4624",
    "Id": "01H98F4G4APPB0M407GV887KGM",
    "Name": "Voonder",
    "Location": { "Latitude": 35.6704666, "Longitude": 139.6596071 },
    "Address": {
      "Street": "3642 Nelson Plaza",
      "Ward": "Ward 4",
      "City": "Ōhara"
    },
    "Status": 0
  },
  {
    "ZipCode": "45545-000",
    "Id": "01H98F4G4BFKYZZG64QB21HAVK",
    "Name": "Riffpath",
    "Location": { "Latitude": -14.2581428, "Longitude": -39.3932232 },
    "Address": {
      "Street": "10 Mcguire Avenue",
      "Ward": "Ward 2",
      "City": "Ubaitaba",
      "ZipCode": "54529 CEDEX"
    },
    "Status": 1
  },
  {
    "ZipCode": "504 75",
    "Id": "01H98F4G4DQYYVDSPAKT1TF42Y",
    "Name": "Zoomcast",
    "Location": { "Latitude": 57.7516519, "Longitude": 12.898467 },
    "Address": {
      "Street": "9888 Summit Place",
      "Ward": "Ward 4",
      "City": "Borås",
      "Province": "Västra Götaland"
    },
    "Status": 1
  },
  {
    "ZipCode": "48892",
    "Id": "01H98F4G4ESQKQSFCHMWFWZ7KQ",
    "Name": "Ailane",
    "Location": { "Latitude": 19.4614133, "Longitude": -99.1186381 },
    "Address": {
      "Street": "96601 Warbler Junction",
      "Ward": "Ward 3",
      "City": "Emiliano Zapata",
      "Province": "Jalisco"
    },
    "Status": 0
  },
  {
    "ZipCode": "92077 CEDEX",
    "Id": "01H98F4G4GKQ0133PAX0YB5EZ4",
    "Name": "Skippad",
    "Location": { "Latitude": 48.890054, "Longitude": 2.2372792 },
    "Address": {
      "Street": "19 Crowley Plaza",
      "Ward": "Trường Thạnh",
      "City": "Paris La Défense",
      "Province": "Île-de-France",
      "ZipCode": "J8C"
    },
    "Status": 1
  },
  {
    "ZipCode": "83727",
    "Id": "01H98F4G4KZY2R5DADDBCMA6JG",
    "Name": "Mudo",
    "Location": { "Latitude": 33.6977944, "Longitude": -117.7765895 },
    "Address": {
      "Street": "2 Kings Terrace",
      "Ward": "Trường Thạnh",
      "City": "Boise",
      "Province": "Idaho",
      "ZipCode": "8420"
    },
    "Status": 1
  },
  {
    "ZipCode": "A91",
    "Id": "01H98F4G4NGPJH960C1602JPMP",
    "Name": "Voomm",
    "Location": { "Latitude": 53.2774963, "Longitude": -6.1157412 },
    "Address": {
      "Street": "4 Corry Drive",
      "Ward": "Ward 2",
      "City": "Dunlewy"
    },
    "Status": 1
  },
  {
    "ZipCode": "442591",
    "Id": "01H98F4G4PYDNADM5YCGQQD6BD",
    "Name": "Devpoint",
    "Location": { "Latitude": 53.3412978, "Longitude": 46.2520423 },
    "Address": {
      "Street": "5 Russell Street",
      "Ward": "Ward 3",
      "City": "Sosnovoborsk",
      "ZipCode": "1315"
    },
    "Status": 1
  },
  {
    "ZipCode": "21-306",
    "Id": "01H98F4G5209PD365JAFVPTQFK",
    "Name": "Skibox",
    "Location": { "Latitude": 51.6857586, "Longitude": 22.6493816 },
    "Address": {
      "Street": "88 Service Point",
      "Ward": "Ward 3",
      "City": "Czemierniki"
    },
    "Status": 1
  },
  {
    "ZipCode": "94254 CEDEX",
    "Id": "01H98F4G53FSB0JG7T2WDVZWRB",
    "Name": "Jaxspan",
    "Location": { "Latitude": 44.478341, "Longitude": 2.845761 },
    "Address": {
      "Street": "94 Thompson Crossing",
      "Ward": "Trường Thạnh",
      "City": "Gentilly",
      "Province": "Île-de-France",
      "ZipCode": "353996"
    },
    "Status": 1
  },
  {
    "ZipCode": "476048",
    "Id": "01H98F4G56BBB0R0CWZDPVKGAR",
    "Name": "Eare",
    "Location": { "Latitude": 10.1884029, "Longitude": -74.916397 },
    "Address": {
      "Street": "19232 Montana Circle",
      "Ward": "Trường Thạnh",
      "City": "Pedraza"
    },
    "Status": 0
  },
  {
    "ZipCode": "81109 CEDEX",
    "Id": "01H98F4G5CZCA338SAG0GHJDVT",
    "Name": "Voolia",
    "Location": { "Latitude": 43.7058177, "Longitude": 2.1365748 },
    "Address": {
      "Street": "78392 Sugar Trail",
      "Ward": "Trường Thạnh",
      "City": "Castres",
      "Province": "Midi-Pyrénées"
    },
    "Status": 0
  },
  {
    "ZipCode": "169511",
    "Id": "01H98F4G5DENCFRZGC93H69GPZ",
    "Name": "Gigazoom",
    "Location": { "Latitude": 63.593219, "Longitude": 53.9068532 },
    "Address": {
      "Street": "41 Forest Point",
      "Ward": "Ward 5",
      "City": "Sosnogorsk"
    },
    "Status": 1
  },
  {
    "ZipCode": "7028",
    "Id": "01H98F4G5S1SRQFRVFD2YQB5WJ",
    "Name": "Trupe",
    "Location": { "Latitude": 8.157005, "Longitude": 123.3464285 },
    "Address": {
      "Street": "2 Milwaukee Junction",
      "Ward": "Ward 4",
      "City": "Dumingag",
      "ZipCode": "90150"
    },
    "Status": 1
  },
  {
    "ZipCode": "59444 CEDEX",
    "Id": "01H98F4G5VNAXFTZY0DEXFH9FD",
    "Name": "Lazz",
    "Location": { "Latitude": 50.6638362, "Longitude": 3.119593 },
    "Address": {
      "Street": "1 Killdeer Terrace",
      "Ward": "Ward 2",
      "City": "Wasquehal",
      "Province": "Nord-Pas-de-Calais",
      "ZipCode": "303622"
    },
    "Status": 1
  },
  {
    "ZipCode": "319-1111",
    "Id": "01H98F4G5WBJ5AV9BS2W5MHZZW",
    "Name": "Fivechat",
    "Location": { "Latitude": 36.4707823, "Longitude": 140.5615795 },
    "Address": {
      "Street": "8467 Gulseth Drive",
      "Ward": "Ward 5",
      "City": "Funaishikawa"
    },
    "Status": 0
  },
  {
    "ZipCode": "32-640",
    "Id": "01H98F4G643QNYM4X1W5Y0N0Y1",
    "Name": "Bubblebox",
    "Location": { "Latitude": 49.99621, "Longitude": 19.4374699 },
    "Address": {
      "Street": "3511 Donald Center",
      "Ward": "Trường Thạnh",
      "City": "Zator",
      "ZipCode": "13160-000"
    },
    "Status": 1
  },
  {
    "ZipCode": "57210",
    "Id": "01H98F4G66M6Y0YCSJRC1Q70DF",
    "Name": "Realmix",
    "Location": { "Latitude": 8.539947, "Longitude": 99.940316 },
    "Address": {
      "Street": "4050 Jenna Center",
      "Ward": "Ward 2",
      "City": "Nakhon Si Thammarat"
    },
    "Status": 0
  },
  {
    "ZipCode": "157510",
    "Id": "01H98F4G6739PFW5ANXPFJC5CJ",
    "Name": "Brainsphere",
    "Location": { "Latitude": 58.3669548, "Longitude": 45.5416034 },
    "Address": {
      "Street": "5 American Road",
      "Ward": "Ward 3",
      "City": "Shar’ya"
    },
    "Status": 1
  },
  {
    "ZipCode": "155933",
    "Id": "01H98F4G69F1HJ8PR5WB2KJ36A",
    "Name": "Skinix",
    "Location": { "Latitude": 56.7034937, "Longitude": 41.3503153 },
    "Address": {
      "Street": "86 Anderson Parkway",
      "Ward": "Trường Thạnh",
      "City": "Kolobovo",
      "ZipCode": "5046"
    },
    "Status": 1
  },
  {
    "ZipCode": "72768",
    "Id": "01H98F4G6DK34EX3G88TZ2VX2M",
    "Name": "Twimm",
    "Location": { "Latitude": 48.5373555, "Longitude": 9.2004305 },
    "Address": {
      "Street": "44780 Calypso Circle",
      "Ward": "Trường Thạnh",
      "City": "Reutlingen",
      "Province": "Baden-Württemberg",
      "ZipCode": "63009 CEDEX 1"
    },
    "Status": 0
  },
  {
    "ZipCode": "4600-652",
    "Id": "01H98F4G6FTRN70XJR1GQ5B8EM",
    "Name": "Riffpedia",
    "Location": { "Latitude": 41.2404268, "Longitude": -8.057813 },
    "Address": {
      "Street": "6537 Clyde Gallagher Center",
      "Ward": "Ward 4",
      "City": "Quinta",
      "Province": "Porto"
    },
    "Status": 0
  },
  {
    "ZipCode": "8010",
    "Id": "01H98F4G6HY584PKS1PQP7CAEA",
    "Name": "Kwilith",
    "Location": { "Latitude": 6.594633, "Longitude": 125.400567 },
    "Address": {
      "Street": "1078 Sunfield Junction",
      "Ward": "Ward 4",
      "City": "Malalag",
      "ZipCode": "4820-449"
    },
    "Status": 1
  },
  {
    "ZipCode": "631028",
    "Id": "01H98F4G6MXG3PXR0DC9BK5DQH",
    "Name": "Twimm",
    "Location": { "Latitude": 4.637376, "Longitude": -75.570777 },
    "Address": {
      "Street": "4239 Talisman Crossing",
      "Ward": "Ward 4",
      "City": "Salento"
    },
    "Status": 0
  },
  {
    "ZipCode": "24040",
    "Id": "01H98F4G6VB1K019JQYHH7FQNW",
    "Name": "Mynte",
    "Location": { "Latitude": 37.27, "Longitude": -79.94 },
    "Address": {
      "Street": "10708 Transport Trail",
      "Ward": "Ward 5",
      "City": "Roanoke",
      "Province": "Virginia",
      "ZipCode": "162674"
    },
    "Status": 0
  },
  {
    "ZipCode": "250247",
    "Id": "01H98F4G6W1G326TY5HQ2N8NP1",
    "Name": "Flashpoint",
    "Location": { "Latitude": 4.917531, "Longitude": -74.024773 },
    "Address": {
      "Street": "02 Esch Pass",
      "Ward": "Trường Thạnh",
      "City": "Cajicá",
      "ZipCode": "64-150"
    },
    "Status": 0
  },
  {
    "ZipCode": "99750",
    "Id": "01H98F4G716RM746WM41NHKGFG",
    "Name": "Kamba",
    "Location": { "Latitude": 32.5468611, "Longitude": -116.9030256 },
    "Address": {
      "Street": "4 Ludington Avenue",
      "Ward": "Ward 4",
      "City": "Magisterial",
      "Province": "Zacatecas"
    },
    "Status": 1
  },
  {
    "ZipCode": "77700",
    "Id": "01H98F4G77FRPXRNF0E41D4TER",
    "Name": "Lazzy",
    "Location": { "Latitude": 62.6243044, "Longitude": 26.8277488 },
    "Address": {
      "Street": "9 Fairview Lane",
      "Ward": "Ward 3",
      "City": "Rautalampi"
    },
    "Status": 0
  },
  {
    "ZipCode": "4570-198",
    "Id": "01H98F4G78CPG3BQEPZ8DX4E0C",
    "Name": "Devpulse",
    "Location": { "Latitude": 41.448315, "Longitude": -8.7482341 },
    "Address": {
      "Street": "2 Jenna Parkway",
      "Ward": "Trường Thạnh",
      "City": "Estela",
      "Province": "Porto",
      "ZipCode": "T9S"
    },
    "Status": 0
  },
  {
    "ZipCode": "14140",
    "Id": "01H98F4G7ATTGMRF1G09575B9B",
    "Name": "Skilith",
    "Location": { "Latitude": 14.7147473, "Longitude": 100.4358552 },
    "Address": {
      "Street": "62827 Moland Circle",
      "Ward": "Ward 4",
      "City": "Chaiyo"
    },
    "Status": 1
  },
  {
    "ZipCode": "50634",
    "Id": "01H98F4G7BW847TSEY2P50HE3G",
    "Name": "Thoughtmix",
    "Location": { "Latitude": 3.1523104, "Longitude": 101.7178316 },
    "Address": {
      "Street": "6931 Hauk Junction",
      "Ward": "Trường Thạnh",
      "City": "Kuala Lumpur",
      "Province": "Kuala Lumpur"
    },
    "Status": 1
  },
  {
    "ZipCode": "452800",
    "Id": "01H98F4G7D9KZQ1ZCJ9WJ6TZPA",
    "Name": "Myworks",
    "Location": { "Latitude": 56.2674828, "Longitude": 54.9252541 },
    "Address": {
      "Street": "6 Duke Street",
      "Ward": "Ward 5",
      "City": "Yanaul"
    },
    "Status": 1
  },
  {
    "ZipCode": "67451",
    "Id": "01H98F4G7GRA6ZXJ7TTMCS103W",
    "Name": "Chatterpoint",
    "Location": { "Latitude": 27.5331693, "Longitude": 68.7254605 },
    "Address": {
      "Street": "4 Linden Plaza",
      "Ward": "Ward 3",
      "City": "Khairpur",
      "ZipCode": "83-425"
    },
    "Status": 1
  },
  {
    "ZipCode": "734028",
    "Id": "01H98F4G7H95W4GFWWVF48GM08",
    "Name": "Kwideo",
    "Location": { "Latitude": 4.0904675, "Longitude": -74.5346103 },
    "Address": {
      "Street": "0710 Bunker Hill Drive",
      "Ward": "Ward 5",
      "City": "Icononzo",
      "ZipCode": "356041"
    },
    "Status": 1
  },
  {
    "ZipCode": "2758",
    "Id": "01H98F4G7NWNFWFCBGTWV4N0HC",
    "Name": "Realbuzz",
    "Location": { "Latitude": 41.8408189, "Longitude": 23.0786372 },
    "Address": {
      "Street": "629 Gerald Center",
      "Ward": "Ward 2",
      "City": "Simitli"
    },
    "Status": 1
  },
  {
    "ZipCode": "412068",
    "Id": "01H98F4G7PH74VS348B9PCPVA3",
    "Name": "Meejo",
    "Location": { "Latitude": 2.8289721, "Longitude": -75.8301537 },
    "Address": {
      "Street": "270 Shasta Avenue",
      "Ward": "Trường Thạnh",
      "City": "Íquira"
    },
    "Status": 1
  },
  {
    "ZipCode": "21-060",
    "Id": "01H98F4G7QY2XPMAH4FQPDD770",
    "Name": "Quatz",
    "Location": { "Latitude": 51.068668, "Longitude": 22.9614463 },
    "Address": {
      "Street": "23272 Porter Pass",
      "Ward": "Ward 5",
      "City": "Fajsławice"
    },
    "Status": 0
  },
  {
    "ZipCode": "88925",
    "Id": "01H98F4G7XNQ32C9VEZ4KNWEZN",
    "Name": "Twitterbeat",
    "Location": { "Latitude": 19.3999682, "Longitude": -99.2047894 },
    "Address": {
      "Street": "02 Darwin Avenue",
      "Ward": "Ward 3",
      "City": "Las Americas",
      "Province": "Tamaulipas",
      "ZipCode": "7904"
    },
    "Status": 1
  },
  {
    "ZipCode": "763049",
    "Id": "01H98F4G7Y47ZW42SG5S11MABB",
    "Name": "Topicshots",
    "Location": { "Latitude": 3.8785364, "Longitude": -76.2981163 },
    "Address": {
      "Street": "48623 Paget Pass",
      "Ward": "Ward 5",
      "City": "Buga"
    },
    "Status": 1
  },
  {
    "ZipCode": "4712",
    "Id": "01H98F4G7ZXZ67A026C8W0AZAJ",
    "Name": "Topdrive",
    "Location": { "Latitude": 14.4958564, "Longitude": 121.0188552 },
    "Address": {
      "Street": "74 Everett Court",
      "Ward": "Ward 5",
      "City": "Barcelona"
    },
    "Status": 0
  },
  {
    "ZipCode": "J9Z",
    "Id": "01H98F4G81CQR388PJV05Q4JA1",
    "Name": "Yakitri",
    "Location": { "Latitude": 51.29995, "Longitude": -116.9689 },
    "Address": {
      "Street": "0565 Swallow Alley",
      "Ward": "Ward 3",
      "City": "Golden",
      "Province": "British Columbia",
      "ZipCode": "31489 CEDEX 4"
    },
    "Status": 1
  },
  {
    "ZipCode": "541 07",
    "Id": "01H98F4G88NS2XFDE4P6CDSV8M",
    "Name": "Riffpedia",
    "Location": { "Latitude": 58.3493356, "Longitude": 13.8300629 },
    "Address": {
      "Street": "39 7th Pass",
      "Ward": "Trường Thạnh",
      "City": "Skövde",
      "Province": "Västra Götaland",
      "ZipCode": "300 10"
    },
    "Status": 1
  },
  {
    "ZipCode": "3116",
    "Id": "01H98F4G89BE2W3E2FPCD4ZNTH",
    "Name": "Kwilith",
    "Location": { "Latitude": -32.968211, "Longitude": -60.6752261 },
    "Address": {
      "Street": "6403 Fieldstone Circle",
      "Ward": "Ward 2",
      "City": "Crespo"
    },
    "Status": 0
  },
  {
    "ZipCode": "507009",
    "Id": "01H98F4G8CZ2HRT053FGGZ59A6",
    "Name": "Dabfeed",
    "Location": { "Latitude": 3.991663, "Longitude": -73.766129 },
    "Address": {
      "Street": "1 International Way",
      "Ward": "Trường Thạnh",
      "City": "Acacías",
      "ZipCode": "352177"
    },
    "Status": 1
  },
  {
    "ZipCode": "8242",
    "Id": "01H98F4G8N6A6DSES9KNFMMHZ9",
    "Name": "Edgewire",
    "Location": { "Latitude": 22.9627499, "Longitude": 90.1838976 },
    "Address": {
      "Street": "6 Mayfield Circle",
      "Ward": "Ward 5",
      "City": "Gaurnadi",
      "ZipCode": "J9L"
    },
    "Status": 0
  },
  {
    "ZipCode": "67391",
    "Id": "01H98F4G8VCASM17FTRRFD5FJN",
    "Name": "Kwilith",
    "Location": { "Latitude": 32.1018288, "Longitude": 72.7912031 },
    "Address": {
      "Street": "44198 Lakewood Way",
      "Ward": "Ward 3",
      "City": "Sargodha",
      "ZipCode": "241 32"
    },
    "Status": 1
  },
  {
    "ZipCode": "56101",
    "Id": "01H98F4G8ZT9N0XRTF50SMHWNH",
    "Name": "Voonder",
    "Location": { "Latitude": 61.8628073, "Longitude": 29.2775676 },
    "Address": {
      "Street": "7 Logan Avenue",
      "Ward": "Ward 2",
      "City": "Ruokolahti",
      "ZipCode": "2364"
    },
    "Status": 0
  },
  {
    "ZipCode": "05-840",
    "Id": "01H98F4G90NEP3MDK141XQ49N9",
    "Name": "Skimia",
    "Location": { "Latitude": 52.142598, "Longitude": 20.7175048 },
    "Address": {
      "Street": "560 Forster Parkway",
      "Ward": "Ward 5",
      "City": "Brwinów",
      "ZipCode": "3840-065"
    },
    "Status": 0
  },
  {
    "ZipCode": "85101",
    "Id": "01H98F4G929Q0PGSSBQ9DK788Y",
    "Name": "Devbug",
    "Location": { "Latitude": 64.2456893, "Longitude": 23.8402057 },
    "Address": {
      "Street": "2 Hooker Park",
      "Ward": "Ward 4",
      "City": "Kalajoki",
      "ZipCode": "191023"
    },
    "Status": 1
  },
  {
    "ZipCode": "691 53",
    "Id": "01H98F4G94BVVDN9J69RDSXS6J",
    "Name": "Skynoodle",
    "Location": { "Latitude": 48.760482, "Longitude": 16.9944668 },
    "Address": {
      "Street": "38441 Sherman Circle",
      "Ward": "Ward 2",
      "City": "Tvrdonice"
    },
    "Status": 0
  },
  {
    "ZipCode": "431 66",
    "Id": "01H98F4G9A57T69MQBDK8GKN7F",
    "Name": "Voomm",
    "Location": { "Latitude": 57.6653832, "Longitude": 12.0310091 },
    "Address": {
      "Street": "35558 Eagle Crest Road",
      "Ward": "Ward 3",
      "City": "Mölndal",
      "Province": "Västra Götaland"
    },
    "Status": 1
  },
  {
    "ZipCode": "22-604",
    "Id": "01H98F4G9M7GKK9SVHV04ZQYWK",
    "Name": "Photofeed",
    "Location": { "Latitude": 50.5368321, "Longitude": 23.4027578 },
    "Address": {
      "Street": "69 Park Meadow Drive",
      "Ward": "Ward 4",
      "City": "Tarnawatka"
    },
    "Status": 0
  },
  {
    "ZipCode": "673416",
    "Id": "01H98F4G9NB53G7J82YE4JMM57",
    "Name": "Dabvine",
    "Location": { "Latitude": 51.9769348, "Longitude": 116.5697117 },
    "Address": {
      "Street": "45188 Messerschmidt Hill",
      "Ward": "Ward 4",
      "City": "Nerchinsk",
      "ZipCode": "4710"
    },
    "Status": 0
  },
  {
    "ZipCode": "57301",
    "Id": "01H98F4GA5RFHDK1Z9X6M9EZTD",
    "Name": "Riffpedia",
    "Location": { "Latitude": 30.7879384, "Longitude": 72.7289812 },
    "Address": {
      "Street": "294 Old Shore Court",
      "Ward": "Ward 3",
      "City": "Māmu Kānjan",
      "ZipCode": "88820-000"
    },
    "Status": 1
  },
  {
    "ZipCode": "9760-406",
    "Id": "01H98F4GA6G0V3JJAY3YCJWWN6",
    "Name": "Kayveo",
    "Location": { "Latitude": 38.739431, "Longitude": -27.079718 },
    "Address": {
      "Street": "71 Anzinger Court",
      "Ward": "Ward 5",
      "City": "Praia da Vitória",
      "Province": "Ilha Terceira",
      "ZipCode": "62010 CEDEX"
    },
    "Status": 1
  },
  {
    "ZipCode": "3525-254",
    "Id": "01H98F4GA916YWHW0YCV6PR4E9",
    "Name": "Avamba",
    "Location": { "Latitude": 40.5045999, "Longitude": -7.9318645 },
    "Address": {
      "Street": "4283 Grayhawk Center",
      "Ward": "Ward 5",
      "City": "Póvoa de Santo António",
      "Province": "Viseu",
      "ZipCode": "66031"
    },
    "Status": 0
  },
  {
    "ZipCode": "291 88",
    "Id": "01H98F4GAB2EXEDXVFFX6NN0RC",
    "Name": "Tanoodle",
    "Location": { "Latitude": 56.0247998, "Longitude": 14.162184 },
    "Address": {
      "Street": "46 Gina Avenue",
      "Ward": "Trường Thạnh",
      "City": "Kristianstad",
      "Province": "Skåne",
      "ZipCode": "63-600"
    },
    "Status": 1
  },
  {
    "ZipCode": "4894",
    "Id": "01H98F4GAFZW2KQ4DXVHQFBD91",
    "Name": "Zoomlounge",
    "Location": { "Latitude": -40.1929865, "Longitude": 175.2929384 },
    "Address": {
      "Street": "2975 Hazelcrest Pass",
      "Ward": "Trường Thạnh",
      "City": "Bulls",
      "ZipCode": "50000"
    },
    "Status": 0
  },
  {
    "ZipCode": "3360-257",
    "Id": "01H98F4GAG2WFQGTD4WHM4RFE2",
    "Name": "Photojam",
    "Location": { "Latitude": 40.2974812, "Longitude": -8.1955122 },
    "Address": {
      "Street": "7074 Larry Court",
      "Ward": "Ward 2",
      "City": "Ribeira",
      "Province": "Coimbra",
      "ZipCode": "A84"
    },
    "Status": 0
  }
]
